BUSINESSNAME,ISSDTTM,EXPDTTM,LICCAT,CAPACITY,STNO,Address,Location,Lat,Long
"SPEAK EASY CONCEPTS, LLC",11/27/2013 12:00:00 AM,12/31/2016 12:00:00 AM,All Alc,520,25,  Boylston PL,"(42.351899, -71.065829)",42.31624823260227,-71.10262693843245
"FROST GROUP, LLC",11/20/2013 12:00:00 AM,12/31/2016 12:00:00 AM,All Alc,240,200,  State ST,"(42.36003, -71.05319)",42.359488,-71.053154
"EMANUEL ENTERPRISES, LLC",10/01/2013 12:00:00 AM,12/31/2016 12:00:00 AM,All Alc,49,71, Meridian St,"(42.37195, -71.0388)",42.37196255,-71.03880522704439
"ZAZ RESTAURANT & CATERING, CORP.",05/19/2015 12:00:00 AM,12/31/2016 12:00:00 AM,All Alc Restr,19,1238, River St,"(0.0, 0.0)",42.255895853213275,-71.12265904761315
HOMESTEAD BAKERY & CAFE LLC,03/02/2016 12:00:00 AM,12/31/2016 12:00:00 AM,All Alc Restr,31,1448, Dorchester Av,"(0.0, 0.0)",42.3011294,-71.059742
"SUYA JOINT, LLC",09/18/2015 12:00:00 AM,12/31/2016 12:00:00 AM,All Alc Restr,84,185,  Dudley ST,"(42.32832, -71.08196)",42.328464499999995,-71.0821485
nan,10/07/2015 12:00:00 AM,12/31/2016 12:00:00 AM,All Alc,263,0,  Thompson Island  ,"(0.0, 0.0)",42.3153762,-71.0083825
"GOURMET CHINA, INC.",11/25/2013 12:00:00 AM,12/31/2016 12:00:00 AM,Malt Wine,48,23, Tyler St,"(42.350769, -71.060935)",42.246233700000005,-71.12499364722146
THE TWELVE BENS,11/29/2013 12:00:00 AM,12/31/2016 12:00:00 AM,All Alc,285,315,  Adams ST,"(42.298605, -71.057578)",42.298611,-71.057467
THE BOSTON LECO CORP.,11/22/2013 12:00:00 AM,12/31/2016 12:00:00 AM,All Alc,746,71,  Warrenton ST,"(0.0, 0.0)",42.34958434264061,-71.06633684682883
"HLC GROUP ENTERPRISES, LLC",11/15/2013 12:00:00 AM,12/31/2016 12:00:00 AM,All Alc,148,131, Dartmouth St,"(42.34682, -71.07543)",42.3467104,-71.0753958
"COPPERSMITH HALL, LLC",11/25/2013 12:00:00 AM,12/31/2016 12:00:00 AM,All Alc,360,40,W Third St,"(0.0, 0.0)",42.373193824433706,-71.05621956764712
"THE NEXT PLACE, LLC",11/29/2013 12:00:00 AM,12/31/2016 12:00:00 AM,All Alc,440,262,  Friend ST,"(42.36457, -71.06144)",42.36465214285714,-71.06137916326531
"MASSACHUSETTS SPORTSERVICE, INC.",11/27/2013 12:00:00 AM,12/31/2016 12:00:00 AM,All Alc,19058,100,  Legends WY,"(42.36629, -71.0622)",42.36628985,-71.06222575726522
"BARRY'S CORNER PROPERTY, LLC",12/02/2013 12:00:00 AM,12/31/2016 12:00:00 AM,All Alc,0,219, Western Av,"(42.364022, -71.130413)",42.3632943,-71.1306946
"SIP WINE BAR AND KITCHEN, INC.",11/27/2013 12:00:00 AM,12/31/2016 12:00:00 AM,All Alc,163,571,  Washington ST,"(42.353531, -71.062736)",42.3502939,-71.16487224571489
"Twleve22, LLC.",11/26/2013 12:00:00 AM,12/31/2016 12:00:00 AM,All Alc,181,1222,  Washington ST,"(42.342794, -71.066726)",42.2620157,-71.1564057
"VAN'S RESTAURANT & BAR, INC.",11/26/2013 12:00:00 AM,12/31/2016 12:00:00 AM,All Alc,75,1154, Dorchester Av,"(42.307719, -71.05859)",42.311563925399426,-71.05741560178039
"RING ROAD RESTAURANT GROUP, LLC",11/27/2013 12:00:00 AM,12/31/2016 12:00:00 AM,All Alc,0,780,  Boylston ST,"(42.348135, -71.080855)",42.349055150000005,-71.08159945
"SEAPORT HOSPITALITY, INC.",12/01/2013 12:00:00 AM,12/31/2016 12:00:00 AM,All Alc,300,425,  Summer ST,"(42.346219, -71.043099)",42.3461583,-71.0433047
"SPORTS CONNECTION BAR & GRILL, INC.",11/21/2013 12:00:00 AM,12/31/2016 12:00:00 AM,All Alc,99,560,  Dorchester AV,"(42.330488, -71.05673)",42.330554444444445,-71.05684922222223
"425 BROADWAY, LLC",11/26/2013 12:00:00 AM,12/31/2016 12:00:00 AM,All Alc,360,425,W Broadway ,"(0.0, 0.0)",42.3364129,-71.0474604
STANJACK CORPORATION,12/17/2013 12:00:00 AM,12/31/2016 12:00:00 AM,All Alc,59,645,E Second ST,"(42.33718, -71.03733)",42.337201,-71.037309
"BOMBOLOTTI, INC.",11/22/2013 12:00:00 AM,12/31/2016 12:00:00 AM,All Alc,368,250, Hanover St,"(0.0, 0.0)",42.36355075,-71.054885
"METRO DINING, INC.",12/02/2013 12:00:00 AM,12/31/2016 12:00:00 AM,All Alc,175,32,  Harvard AV,"(42.354873, -71.132348)",42.3004374,-71.07598785344345
"BACK BAY BEATS, LLC",11/22/2013 12:00:00 AM,12/31/2016 12:00:00 AM,All Alc,0,160,  Massachusetts AV,"(0.0, 0.0)",42.3460483,-71.0868774
"K.M.F. HOSPITALITY, INC.",11/25/2013 12:00:00 AM,12/31/2016 12:00:00 AM,All Alc,460,156,  Milk ST,"(0.0, 0.0)",42.358589,-71.053115
THE GROMIT GROUP LLC,11/26/2013 12:00:00 AM,12/31/2016 12:00:00 AM,All Alc,330,69,  Kilmarnock ST,"(42.34258, -71.09953)",42.342471700000004,-71.0994794
"GALLEON VENTURES,  INC.",11/26/2013 12:00:00 AM,12/31/2016 12:00:00 AM,All Alc,99,134,  Smith ST,"(42.33471, -71.10204)",42.334749693877555,-71.10217687755103
STADIUM RESTAURANT LLC,11/29/2013 12:00:00 AM,12/31/2016 12:00:00 AM,All Alc,509,232, Old Colony Av,"(42.33218, -71.05325)",42.331877950212494,-71.05349889457824
"SAVIN RESTAURANT, LLC",11/06/2013 12:00:00 AM,12/31/2016 12:00:00 AM,All Alc,144,112, Savin Hill Av,"(0.0, 0.0)",42.3116974,-71.05339366285587
MASSACHUSETTS CONVENTION CENTER AUTHORITY,11/26/2013 12:00:00 AM,12/31/2015 12:00:00 AM,All Alc,25295,900,  Boylston ST,"(0.0, 0.0)",42.347137599999996,-71.08399283816692
"RESTAURANTE CESARIA, INC.",11/27/2013 12:00:00 AM,12/31/2016 12:00:00 AM,All Alc,99,266, Bowdoin St,"(42.30692, -71.06667)",42.306916,-71.06641185714285
"ALLSTON RESTAURANT GROUP, LLC",11/26/2013 12:00:00 AM,12/31/2016 12:00:00 AM,All Alc,143,458,  Western AV,"(42.361959, -71.142208)",42.36195475,-71.1422123229033
"SOUTH END MOVERS, INC.",11/25/2013 12:00:00 AM,12/31/2016 12:00:00 AM,All Alc,38,4272, Washington St,"(0.0, 0.0)",42.28518442857143,-71.12935742857142
CM DIAMOND IMPORTERS LLC,12/02/2013 12:00:00 AM,12/31/2016 12:00:00 AM,All Alc,338,1,  Winter PL,"(42.351846, -71.060822)",42.355822,-71.061525
"MASSACHUSETTS SPORTSERVICE, INC.",11/27/2013 12:00:00 AM,12/31/2016 12:00:00 AM,All Alc,426,100,  Legends WY,"(42.36629, -71.0622)",42.36628985,-71.06222575726522
"325, LLC",11/27/2013 12:00:00 AM,12/31/2016 12:00:00 AM,All Alc,123,81,  Fairmount AV,"(42.25459, -71.12019)",42.2544735,-71.1201731357666
"THE JUNCTION TAVERN, INC.",11/25/2013 12:00:00 AM,12/31/2016 12:00:00 AM,All Alc,140,110,  Dorchester ST,"(42.335139, -71.04595)",42.33524670531341,-71.04599796215926
"GLORY RBG, LLC",11/14/2013 12:00:00 AM,12/31/2016 12:00:00 AM,All Alc,449,200,  High ST,"(42.35678, -71.052)",42.3568214,-71.0517938
"SMJ GROUP, LLC",11/21/2013 12:00:00 AM,12/31/2016 12:00:00 AM,All Alc,115,1357,  Washington ST,"(42.34165, -71.06928)",42.2620157,-71.1564057
"MELA GROUP, INC.",11/26/2013 12:00:00 AM,12/31/2016 12:00:00 AM,All Alc,49,574, Tremont St,"(42.343257, -71.072509)",42.34331005,-71.07243836196632
"THE BACK DECK, INC.",11/26/2013 12:00:00 AM,12/31/2016 12:00:00 AM,All Alc Restr,142,10,  West ST,"(42.354426, -71.062191)",42.35450675,-71.06223106970577
FLORENTIA CORP.,11/25/2013 12:00:00 AM,12/31/2016 12:00:00 AM,Malt Wine,24,130, Jersey St,"(0.0, 0.0)",42.34242585,-71.0965584870919
"PHO BASIL, INC.",11/18/2013 12:00:00 AM,12/31/2016 12:00:00 AM,Malt Wine,60,177,  Massachusetts AV,"(42.34577, -71.08734)",42.3458108,-71.0872618
"FARANDOLE, LLC",11/12/2013 12:00:00 AM,12/31/2016 12:00:00 AM,Malt Wine,48,175,  Massachusetts AV,"(42.34583, -71.08737)",42.3458492,-71.0872764
"TRIANGLE RESTAURANT, LLC",11/15/2013 12:00:00 AM,12/31/2016 12:00:00 AM,Malt Wine,0,304,  Stuart ST,"(42.349832, -71.070578)",42.349835866666666,-71.0707978
"BONCHON ALLSTON, LLC",11/26/2013 12:00:00 AM,12/31/2016 12:00:00 AM,Malt Wine,88,101,  Brighton AV,"(42.353081, -71.130624)",42.352927,-71.130316
"TABAR, INC.",11/29/2013 12:00:00 AM,12/31/2016 12:00:00 AM,Malt Wine,18,611,  Dorchester AV,"(42.328788, -71.057108)",42.3288045,-71.0570881
"DOT BOY, INC.",11/27/2013 12:00:00 AM,12/31/2016 12:00:00 AM,Malt Wine,86,476,  Commonwealth AV,"(42.34854, -71.09385)",42.3485631,-71.0938602
"Fairouz Restaurant, Inc.",11/29/2013 12:00:00 AM,12/31/2016 12:00:00 AM,All Alc,66,5268, Washington St,"(42.25931, -71.1589)",42.25913458823529,-71.15992026470589
"POE'S PUB, INC.",11/26/2013 12:00:00 AM,12/31/2016 12:00:00 AM,All Alc,95,782, Tremont St,"(0.0, 0.0)",42.3390224,-71.0804718
"AMICI, INC.",11/25/2013 12:00:00 AM,12/31/2016 12:00:00 AM,All Alc,49,111,N Washington ST,"(42.365582, -71.058131)",42.305178222222224,-71.08039022222222
"MODERN PASTRY, INC.",11/01/2013 12:00:00 AM,12/31/2016 12:00:00 AM,All Alc,94,261,  Hanover ST,"(42.36329, -71.0547)",42.36344277777778,-71.05471555555555
"NORTH STREET GRILLE & CAFÉ, INC.",11/29/2013 12:00:00 AM,12/31/2016 12:00:00 AM,All Alc,40,229,  North ST,"(0.0, 0.0)",42.3634244,-71.05260073333334
"PIERROT, INC.",11/25/2013 12:00:00 AM,12/31/2016 12:00:00 AM,All Alc,36,272, Cambridge St,"(0.0, 0.0)",42.3609968,-71.067948
SHABU ZEN INTERNATIONAL,11/26/2013 12:00:00 AM,12/31/2016 12:00:00 AM,All Alc,152,78,  Brighton AV,"(42.352422, -71.128929)",42.3524764,-71.128792
"Suishaya, Inc.",11/29/2013 12:00:00 AM,12/31/2016 12:00:00 AM,All Alc,48,2,  Tyler ST,"(42.35121, -71.06037)",42.246816,-71.125222
"AMPHITRYON RESTAURANT GROUP, LLC",11/26/2013 12:00:00 AM,12/31/2016 12:00:00 AM,All Alc,16,153,  Belgrade AV,"(42.286425, -71.136969)",42.28634894117647,-71.1367551764706
"MYERS & CHANG, LLC",11/27/2013 12:00:00 AM,12/31/2016 12:00:00 AM,All Alc Restr,75,1143,  Washington ST,"(42.3438, -71.06631)",42.27254197398606,-71.06964529867504
"NICOLE'S PIZZA, INC.",12/02/2013 12:00:00 AM,12/31/2016 12:00:00 AM,All Alc Restr,11,639, Tremont St,"(0.0, 0.0)",42.342250444444446,-71.075061
"HONG ZE RESTAURANT, INC.",11/22/2013 12:00:00 AM,12/31/2016 12:00:00 AM,All Alc Restr,106,19,  Hudson ST,"(42.35063, -71.06027)",42.350544400000004,-71.06030687187891
"BUBOR CHA-CHA RESTAURANT, LLC",11/22/2013 12:00:00 AM,12/31/2016 12:00:00 AM,All Alc Restr,60,45, Beach St,"(0.0, 0.0)",42.351373201881984,-71.06091269436335
"SOFI'S RESTAURANT GROUP, LLC",11/29/2013 12:00:00 AM,12/31/2016 12:00:00 AM,All Alc Restr,49,18, Corinth St,"(0.0, 0.0)",42.28683517143268,-71.1307096001222
"JUNG ENTERPRISE, INC.",03/31/2015 12:00:00 AM,12/31/2016 12:00:00 AM,Malt Wine,46,174, Harvard Av,"(0.0, 0.0)",42.351347,-71.1313895
N&N FOODS INCORPORATED,11/26/2013 12:00:00 AM,12/31/2016 12:00:00 AM,Malt Wine,45,1799, Commonwealth Av,"(42.340611, -71.151579)",42.3504455,-71.1093057
"21ST, INC.",11/25/2013 12:00:00 AM,12/31/2016 12:00:00 AM,All Alc,96,150,  Bowdoin ST,"(42.358336, -71.062581)",42.303885950715355,-71.07072391522667
"THE WINE BAR, LLC",11/12/2013 12:00:00 AM,12/31/2016 12:00:00 AM,All Alc,263,49,  Temple PL,"(42.35493, -71.061809)",42.35519708700837,-71.06211639720573
"VERDI, LLC",11/22/2013 12:00:00 AM,12/31/2016 12:00:00 AM,All Alc,233,105, Huntington Av,"(0.0, 0.0)",42.34598211111111,-71.08124105555555
"CARMAC, INC.",11/25/2013 12:00:00 AM,12/31/2016 12:00:00 AM,All Alc,240,6,  Beacon ST,"(42.35814, -71.06152)",42.358149,-71.0617226
"81 L ST., LLC",11/15/2013 12:00:00 AM,12/31/2016 12:00:00 AM,All Alc,60,81, L St,"(0.0, 0.0)",42.334879,-71.035499
Hampshire House Corp.,11/19/2013 12:00:00 AM,12/31/2016 12:00:00 AM,All Alc,84,220,  Northern AV,"(0.0, 0.0)",42.3491313,-71.0388884
"FOOD FOR THOUGHT DINING, LLC",11/26/2013 12:00:00 AM,12/31/2016 12:00:00 AM,All Alc,180,92,  MASSACHUSETTS AVE,"(0.0, 0.0)",42.348624,-71.088278
"99 RESTAURANTS OF BOSTON, LLC",11/29/2013 12:00:00 AM,12/31/2016 12:00:00 AM,All Alc,226,29,  Austin ST,"(42.374884, -71.067065)",42.293206142857144,-71.09029257142858
"AREA FOUR CENTRAL OPERATING, LLC",11/27/2013 12:00:00 AM,12/31/2016 12:00:00 AM,All Alc,0,275,  Albany ST,"(42.343759, -71.062729)",42.34347223489117,-71.06243291089724
"253 FOOD AND SPIRIT, LLC",11/29/2013 12:00:00 AM,12/31/2016 12:00:00 AM,All Alc,335,255,  Tremont ST,"(0.0, 0.0)",42.35409855,-71.17854459289092
"BBRG TR, LLC",11/25/2013 12:00:00 AM,12/31/2016 12:00:00 AM,All Alc,425,777,  Boylston ST,"(42.349221, -71.081588)",42.3492471,-71.0813825
"ACAPULCO MEXICAN RESTAURANT, INC.",11/27/2013 12:00:00 AM,12/31/2016 12:00:00 AM,All Alc,92,464,  Centre ST,"(0.0, 0.0)",42.29518729090909,-71.05661601818181
ADDIS RED SEA ETHIOPIAN CORP.,11/27/2013 12:00:00 AM,12/31/2016 12:00:00 AM,Malt Wine,68,544, Tremont St,"(0.0, 0.0)",42.344059,-71.071237
"HIGHLAND TAP OF BOSTON, INC.",11/22/2013 12:00:00 AM,12/31/2016 12:00:00 AM,All Alc,103,2128,  Washington ST,"(0.0, 0.0)",42.2620157,-71.1564057
"ALOFT LOUNGE, LLC",11/29/2013 12:00:00 AM,12/31/2016 12:00:00 AM,All Alc,0,401, D St,"(0.0, 0.0)",42.343647000000004,-71.04463914794331
"AMERICAN MULTI-CINEMA, INC.",11/22/2013 12:00:00 AM,12/31/2016 12:00:00 AM,All Alc,4498,175,  Tremont ST,"(42.35315, -71.06403)",42.35344325,-71.06393798116154
"MARKETPLACE SALOON, INC.",11/26/2013 12:00:00 AM,12/31/2016 12:00:00 AM,All Alc,92,294, Faneuil Hall Marketplace ,"(42.360036, -71.056253)",42.36005485,-71.05460485041264
ANCHOVIES ACQUISITION LIMITED PARTNERSHIP,11/13/2013 12:00:00 AM,12/31/2016 12:00:00 AM,All Alc,64,433,  Columbus AV,"(42.344027, -71.077869)",42.34385084615384,-71.07746903846153
"ANGELA'S CAFE GROUP, INC.",11/26/2013 12:00:00 AM,12/31/2016 12:00:00 AM,All Alc,19,131,  Lexington ST,"(42.37853, -71.035)",42.378556,-71.035023
"ANGELA'S CAFE II, INC.",11/19/2013 12:00:00 AM,12/31/2016 12:00:00 AM,All Alc,60,1012,  Bennington ST,"(42.387115, -71.006309)",42.386971,-71.006249
"ANH HONG RESTAURANT, LLC",11/15/2013 12:00:00 AM,12/31/2016 12:00:00 AM,All Alc Restr,95,291,  Adams ST,"(42.299183, -71.05818)",42.299158,-71.058074
"FHM HOSPITALITY, INC.",11/26/2013 12:00:00 AM,12/31/2016 12:00:00 AM,All Alc,336,100, Faneuil Hall Marketplace ,"(0.0, 0.0)",42.36005485,-71.05460485041264
"ANTHONY'S PIER FOUR, INC.",11/29/2013 12:00:00 AM,12/31/2016 12:00:00 AM,All Alc,1076,140,  Northern AV,"(42.35338, -71.04149)",42.35024127629971,-71.04252154541753
"ANTICO FORNO, INC.",11/25/2013 12:00:00 AM,12/31/2016 12:00:00 AM,All Alc,98,93,  Salem ST,"(0.0, 0.0)",42.36373335638852,-71.05563287832193
"286  CAMBRIDGE STREET, INC.",03/28/2016 12:00:00 AM,12/31/2016 12:00:00 AM,All Alc,56,286,  Cambridge ST,"(0.0, 0.0)",42.3609387,-71.06818470779852
"Anthony's Restaurant Group, LLC",06/30/2015 12:00:00 AM,12/31/2016 12:00:00 AM,All Alc Restr,0,5,  Fairmount AV,"(42.25553, -71.121111)",42.255492000000004,-71.12097462068965
APPLE NEW ENGLAND LLC,11/26/2013 12:00:00 AM,12/31/2016 12:00:00 AM,All Alc,127,381, Chestnut Hill Av,"(42.335181, -71.151107)",42.335699,-71.150696
"569 TREMONT, INC.",11/26/2013 12:00:00 AM,12/31/2016 12:00:00 AM,All Alc,72,569,  Tremont ST,"(42.343801, -71.07235)",42.3437826,-71.0723582
"ARIA TRATTORIA, LLC",11/26/2013 12:00:00 AM,12/31/2016 12:00:00 AM,All Alc,48,253,  Hanover ST,"(0.0, 0.0)",42.363270444444446,-71.0548851111111
ARIANA RESTAURANT INCORPORATED,08/14/2015 12:00:00 AM,12/31/2016 12:00:00 AM,All Alc Restr,48,384, Western Av,"(0.0, 0.0)",42.362806393939394,-71.13754645454546
"DONAN, INC.",11/25/2013 12:00:00 AM,12/31/2016 12:00:00 AM,All Alc,99,4,  Prince ST,"(42.36405, -71.05368)",42.36405675,-71.05368731942585
"NANCY'S, INC.",11/25/2013 12:00:00 AM,12/31/2016 12:00:00 AM,All Alc,19,89,  Charles ST,"(42.35859, -71.07049)",42.35856695,-71.07050151847827
"ASHMONT GRILL, LLC",11/27/2013 12:00:00 AM,12/31/2016 12:00:00 AM,All Alc,120,555,  Talbot AV,"(42.286091, -71.064728)",42.2860989,-71.0646266
"ASIAN GARDEN, INC.",11/06/2013 12:00:00 AM,12/31/2016 12:00:00 AM,Malt Wine,42,28,  Harrison AV,"(42.35195, -71.06103)",42.336417,-71.071885
SPACESHIP PICNIC LLC,11/19/2013 12:00:00 AM,12/31/2016 12:00:00 AM,All Alc,49,47,  Massachusetts AV,"(42.34982, -71.08927)",42.34984945,-71.08925272656501
"FARAI, INC.",11/26/2013 12:00:00 AM,12/31/2016 12:00:00 AM,All Alc Restr,80,407, Washington St,"(0.0, 0.0)",42.2973694,-71.07280156888943
"ATLANTIC BEER GARDEN, INC.",11/20/2013 12:00:00 AM,12/31/2016 12:00:00 AM,All Alc,228,146,  Northern AV,"(42.350933, -71.04298)",42.35022751938788,-71.0424898628327
"BBRG TR, LLC",11/25/2013 12:00:00 AM,12/31/2016 12:00:00 AM,All Alc,195,761,  Boylston ST,"(42.34935, -71.08121)",42.3492931,-71.0811812
"THICKER THAN WATER, INC.",11/26/2013 12:00:00 AM,12/31/2016 12:00:00 AM,All Alc,95,838,  Beacon ST,"(42.34741, -71.10321)",42.347314,-71.1031467
"GLENBEG, INC.",11/26/2013 12:00:00 AM,12/31/2016 12:00:00 AM,All Alc,300,65,  Exeter ST,"(0.0, 0.0)",42.3490394,-71.0794633
550 TREMONT LLC,11/25/2013 12:00:00 AM,12/31/2016 12:00:00 AM,All Alc,38,550,  Tremont ST,"(42.343895, -71.071263)",42.3438996,-71.07127516873739
"BABBO ENOTECA FP, LLC",11/20/2013 12:00:00 AM,12/31/2016 12:00:00 AM,All Alc,180,11, Fan Pier  Bl,"(0.0, 0.0)",42.35384344897959,-71.04543369387756
"107 SALEM RESTAURANT, INC.",11/19/2013 12:00:00 AM,12/31/2016 12:00:00 AM,All Alc,115,107,  Salem ST,"(42.36418, -71.05538)",42.364204,-71.055436
"BB SOCIAL CLUB, LLC",11/26/2013 12:00:00 AM,12/31/2016 12:00:00 AM,All Alc,272,867, Boylston St,"(0.0, 0.0)",42.3486678,-71.0834071
"BAMBOO, INC.",11/25/2013 12:00:00 AM,12/31/2016 12:00:00 AM,Malt Wine,49,1616,  Commonwealth AV,"(42.343246, -71.142709)",42.34351299103543,-71.14350975672343
"PHANPHIT, INC.",11/26/2013 12:00:00 AM,12/31/2016 12:00:00 AM,Malt Wine,19,433,  Washington ST,"(42.349345, -71.156794)",42.3493421,-71.1567888
BANGKOK CITY CORPORATION,11/27/2013 12:00:00 AM,12/31/2016 12:00:00 AM,Malt Wine,118,167,  Massachusetts AV,"(42.345998, -71.087473)",42.3460753,-71.0873534
"RRG, LLC",11/26/2013 12:00:00 AM,12/31/2016 12:00:00 AM,All Alc,144,553, Tremont St,"(42.344321, -71.07184)",42.343996,-71.07174
"DARTCOM, LLC",11/12/2013 12:00:00 AM,12/31/2016 12:00:00 AM,All Alc,124,154,  Commonwealth AV,"(42.351284, -71.078648)",42.351681666666664,-71.07785133333333
"BL RESTAURANT OPERATIONS, LLC",11/26/2013 12:00:00 AM,12/31/2016 12:00:00 AM,All Alc,179,121,  Brookline AV,"(42.34575, -71.10049)",42.3457414,-71.1003306
"30 TRAVELER, LLC",11/27/2013 12:00:00 AM,12/31/2016 12:00:00 AM,All Alc,0,360, Harrison Av,"(0.0, 0.0)",42.344743333333334,-71.06379066666668
"BARCELONA SOUTH END, LLC",11/22/2013 12:00:00 AM,12/31/2016 12:00:00 AM,All Alc,172,525,  Tremont ST,"(42.344859, -71.070789)",42.3444755,-71.070965
VAN LIN CORP,11/22/2013 12:00:00 AM,12/31/2016 12:00:00 AM,All Alc,205,241,  A ST,"(42.346569, -71.051069)",42.34678292145063,-71.0511093332366
"ZESKER, INC.",11/26/2013 12:00:00 AM,12/31/2016 12:00:00 AM,All Alc,170,99,  Broad ST,"(0.0, 0.0)",42.35718665,-71.05254938029495
"CARDONA'S, INC.",11/26/2013 12:00:00 AM,12/31/2016 12:00:00 AM,All Alc,62,299,  Havre ST,"(42.376526, -71.033798)",42.375925714285714,-71.0345872857143
"BARRACUDA TAVERN, INC.",11/19/2013 12:00:00 AM,12/31/2016 12:00:00 AM,All Alc,60,10,  Bosworth ST,"(42.356881, -71.060299)",42.3569,-71.060166
"BASEBALL TAVERN, INC.",11/29/2013 12:00:00 AM,12/31/2016 12:00:00 AM,All Alc,541,1270,  Boylston ST,"(42.344648, -71.096299)",42.34488194332687,-71.09630146900788
BASHO FENWAY VENTURES LLC,11/15/2013 12:00:00 AM,12/31/2016 12:00:00 AM,All Alc,194,1330, Boylston St,"(0.0, 0.0)",42.34399915,-71.09847246172475
"49 MELCHER RESTAURANT GROUP, LLC",11/26/2013 12:00:00 AM,12/31/2016 12:00:00 AM,All Alc,460,49,  Melcher ST,"(42.34942, -71.05037)",42.349387199999995,-71.05037339958923
"BATTERY PARK LOUNGE AND RESTAURANT GROUP, LLC",11/29/2013 12:00:00 AM,12/31/2016 12:00:00 AM,All Alc,159,33,  BATTERYMARCH ST,"(0.0, 0.0)",42.35704325931022,-71.05359700856732
"STATE ROOM, INC.",11/20/2013 12:00:00 AM,12/31/2016 12:00:00 AM,All Alc,835,60,  State ST,"(42.35927, -71.05643)",42.35922935,-71.05642886016267
"MONDAY AFTERNOON, INC.",11/26/2013 12:00:00 AM,12/31/2016 12:00:00 AM,All Alc,268,149,  Charles ST,"(42.360479, -71.070569)",42.3604302,-71.070636
"BOSWORTH PLACE, INC.",11/19/2013 12:00:00 AM,12/31/2016 12:00:00 AM,All Alc,249,100,  Tremont ST,"(42.357232, -71.060979)",42.3571582,-71.0607809
"WHEELING'S BAR, LLC",11/26/2013 12:00:00 AM,12/31/2016 12:00:00 AM,All Alc,360,541, Tremont St,"(0.0, 0.0)",42.344207857142855,-71.071338
SLESAR BROTHERS BREWING COMPANY,11/25/2013 12:00:00 AM,12/31/2016 12:00:00 AM,All Alc,595,112, Canal St,"(0.0, 0.0)",42.364473,-71.0603412
Bella Arianna LLC,11/29/2013 12:00:00 AM,12/31/2016 12:00:00 AM,All Alc,160,107,  South ST,"(42.351401, -71.05752)",42.35161835384615,-71.05738435897436
OLD COLONIAL CORPORATION,11/14/2013 12:00:00 AM,12/31/2016 12:00:00 AM,All Alc,496,45,  Union ST,"(42.3616, -71.05706)",42.36144,-71.057027
"BELLA LUNA RESTAURANT, INC.",11/26/2013 12:00:00 AM,12/31/2016 12:00:00 AM,All Alc,200,284, Amory St,"(42.314637, -71.104489)",42.3143773,-71.1040468
"111 SALEM GROUP, INC.",11/26/2013 12:00:00 AM,12/31/2016 12:00:00 AM,All Alc,40,111,  Salem ST,"(0.0, 0.0)",42.3642982,-71.0554599
BERTUCCI'S RESTAURANT CORP.,11/15/2013 12:00:00 AM,12/31/2016 12:00:00 AM,All Alc,219,533,  Commonwealth AV,"(42.34923, -71.09661)",42.348682139353286,-71.09646963880304
"UVM.,INC.",11/22/2013 12:00:00 AM,12/31/2016 12:00:00 AM,All Alc,57,141,  Pearl ST,"(0.0, 0.0)",42.354637749999995,-71.05373842168814
"FUENTE CLEANING SERVICES, INC.",11/19/2013 12:00:00 AM,12/31/2016 12:00:00 AM,All Alc,49,28, Bennington St,"(0.0, 0.0)",42.375726275,-71.0368936
"CONCORDE ENTERTAINMENT, INC.",11/26/2013 12:00:00 AM,12/31/2016 12:00:00 AM,All Alc,907,9,  Lansdowne ST,"(42.347341, -71.095081)",42.3473454,-71.0951514
"CUISINE DE ASIA, INC.",11/12/2013 12:00:00 AM,12/31/2016 12:00:00 AM,All Alc,90,240,  Commercial ST,"(0.0, 0.0)",42.3638568,-71.05148390269478
"BEACON HILL HOSPITALITY GROUP, INC.",11/25/2013 12:00:00 AM,12/31/2016 12:00:00 AM,Malt Wine,64,20,  Charles ST,"(42.35664, -71.06994)",42.3566633,-71.0699291
 ,02/05/2015 12:00:00 AM,12/31/2016 12:00:00 AM,All Alc,87,254, Bennington St,"(0.0, 0.0)",42.37861155,-71.02936817524717
"HM BOSTON, LLC",11/26/2013 12:00:00 AM,12/31/2016 12:00:00 AM,All Alc,208,272,  Boylston ST,"(42.351859, -71.069669)",42.313794721996786,-71.10068138630339
"THE BLACK ROSE, INC.",11/25/2013 12:00:00 AM,12/31/2016 12:00:00 AM,All Alc,413,160, State St,"(0.0, 0.0)",42.3594126,-71.0536973
CHELSEA CITY SQUARE CORP.,11/27/2013 12:00:00 AM,12/31/2016 12:00:00 AM,All Alc,214,1,  Chelsea ST,"(42.3712, -71.061707)",42.370048,-71.038467
"J & K BLASI, INC.",11/27/2013 12:00:00 AM,12/31/2016 12:00:00 AM,All Alc,100,762, Adams St,"(0.0, 0.0)",42.283876,-71.05546433333333
"EQUINOX SC BOSTON, INC.",11/25/2013 12:00:00 AM,12/31/2016 12:00:00 AM,All Alc,168,4, Avery St,"(42.35307, -71.06292)",42.3531469,-71.0630373
"WATER DRAGON, LLC",11/27/2013 12:00:00 AM,12/31/2016 12:00:00 AM,All Alc,99,324, A St,"(42.349391, -71.049735)",42.3493416,-71.04963944275093
MARATHON FOOD LLC,11/13/2013 12:00:00 AM,12/31/2016 12:00:00 AM,Malt Wine,26,389, Centre St,"(0.0, 0.0)",42.3222413,-71.1095921
ARGUETAS CORPORATION,11/27/2013 12:00:00 AM,12/31/2016 12:00:00 AM,All Alc,31,30,  Bennington ST,"(42.37539, -71.038018)",42.37570145,-71.0369598
 ,01/20/2016 12:00:00 AM,12/31/2016 12:00:00 AM,Malt Wine,58,1138,  Blue Hill AV,"(42.285777, -71.09125)",42.3048452,-71.0848265
BOSTON & MAINE FISH COMPANY,11/13/2013 12:00:00 AM,12/31/2016 12:00:00 AM,Malt Wine,23,200,  Faneuil Hall Marketplace  ,"(42.360199, -71.054798)",42.36005485,-71.05460485041264
"CAFE JAFFA, INC.",11/06/2013 12:00:00 AM,12/31/2016 12:00:00 AM,Malt Wine,56,48,  Gloucester ST,"(42.348681, -71.084102)",42.3486892,-71.0840674
"BOSTON ATHLETIC CLUB, INC.",11/25/2013 12:00:00 AM,12/31/2016 12:00:00 AM,All Alc,101,653,  Summer ST,"(42.33981, -71.04354)",42.33980445,-71.04353534027027
"SLESAR BROS. BREWING COMPANY, INC.",11/22/2013 12:00:00 AM,12/31/2016 12:00:00 AM,All Alc,420,61,  Brookline AV,"(42.347163, -71.099081)",42.3469999,-71.0989887
"FIRST BOSTON TEN PIN, INC.",12/11/2014 12:00:00 AM,12/31/2016 12:00:00 AM,All Alc Restr,250,820,  William T Morrissey BLVD,"(42.29388, -71.04627)",42.2941374539789,-71.04728811929265
BEANTOWN BURGER COMPANY,11/26/2013 12:00:00 AM,12/31/2016 12:00:00 AM,Malt Wine,52,1100,  Boylston ST,"(42.346842, -71.088506)",42.3468504,-71.0884838
"BOSTON URBAN HOSPITALITY, INC.",11/21/2013 12:00:00 AM,12/31/2016 12:00:00 AM,All Alc,181,1375, Washington St,"(0.0, 0.0)",42.2620157,-71.1564057
"THE CLUB AT BOSTON COLLEGE, INC.",11/07/2013 12:00:00 AM,12/31/2016 12:00:00 AM,All Alc,361,100,  Federal ST,"(42.35477, -71.05613)",42.355055899999996,-71.05595722374802
MUSEUM OF SCIENCE,11/22/2013 12:00:00 AM,12/31/2016 12:00:00 AM,All Alc,3957,1, Science Pk,"(0.0, 0.0)",42.3667494,-71.0678168
"BOSTON CULINARY GROUP, INC.",11/26/2013 12:00:00 AM,12/31/2016 12:00:00 AM,All Alc,2677,539,  Washington ST,"(42.353999, -71.06237)",42.293026636363635,-71.071945
IRENE NGUYEN,03/25/2014 12:00:00 AM,12/31/2016 12:00:00 AM,Malt Wine,140,1221,  Dorchester AV,"(42.30906, -71.05839)",42.307943670006246,-71.0584528477909
"KUN JIN KIM, INDIVIDUAL",11/29/2013 12:00:00 AM,12/31/2016 12:00:00 AM,All Alc,98,827,  Boylston ST,"(42.34897, -71.08257)",42.3489322,-71.0825485
"BOSTON STREET, INC.",11/25/2013 12:00:00 AM,12/31/2016 12:00:00 AM,All Alc,84,224,  Boston ST,"(42.322272, -71.060848)",42.32214375,-71.0610015
"BOSTON TEA PARTY SHIP, INC",11/14/2013 12:00:00 AM,12/31/2016 12:00:00 AM,All Alc,499,306,  Congress ST,"(0.0, 0.0)",42.3521988,-71.0513039
B.T.U.H.W.F. SERVICE CORPORATION,11/26/2013 12:00:00 AM,12/31/2016 12:00:00 AM,All Alc,1031,180,  Mount Vernon ST,"(42.322135, -71.046901)",42.32205095,-71.04716765211269
"CLOVER VENTURES, LLC",11/15/2013 12:00:00 AM,12/31/2016 12:00:00 AM,All Alc,427,131,  State ST,"(42.358974, -71.054235)",42.35915742857143,-71.05448457142857
GOODCHEER ENTERPRISES LLC,11/27/2013 12:00:00 AM,12/31/2016 12:00:00 AM,All Alc,369,29, Stanhope St,"(0.0, 0.0)",42.3485372,-71.0730371
"NEW PETE'S, LLC",11/27/2013 12:00:00 AM,12/31/2016 12:00:00 AM,All Alc,331,267, Franklin St,"(0.0, 0.0)",42.356626285714285,-71.05357357142857
"GINA GUERRERO, INDIVIDUAL",11/12/2013 12:00:00 AM,12/31/2016 12:00:00 AM,All Alc,36,102,  Meridian ST,"(42.37273, -71.0392)",42.3727313,-71.0392566120808
"Bred Winner, LLC",11/30/2015 12:00:00 AM,12/31/2016 12:00:00 AM,Malt Wine,0,2255, Dorchester Av,"(0.0, 0.0)",42.27349409420357,-71.06784218408322
"THE BREWER'S FORK, LLC",11/25/2013 12:00:00 AM,12/31/2016 12:00:00 AM,All Alc,115,29, Bunker Hill St,"(0.0, 0.0)",42.376768169309344,-71.05709330573319
"STRETFORD END, INC.",11/22/2013 12:00:00 AM,12/31/2016 12:00:00 AM,All Alc,476,158, Brighton Av,"(0.0, 0.0)",42.35292963286939,-71.13261884417258
SAHA-PAKEE CORP.,11/26/2013 12:00:00 AM,12/31/2016 12:00:00 AM,Malt Wine,107,1033,  Commonwealth AV,"(42.352262, -71.121849)",42.3521499,-71.1219581
"111, LLC",11/25/2013 12:00:00 AM,12/31/2016 12:00:00 AM,All Alc,110,111,  Dartmouth ST,"(42.346447, -71.075281)",42.3464338,-71.0753432
BUK KYUNG CORP.,11/20/2013 12:00:00 AM,12/31/2016 12:00:00 AM,All Alc,62,151,  Brighton AV,"(0.0, 0.0)",42.35295141363873,-71.13279602195212
"MANRAJ, INC.",11/26/2013 12:00:00 AM,12/31/2016 12:00:00 AM,All Alc,60,701,  Centre ST,"(42.311537, -71.114558)",42.3115692,-71.1145389
"MONTANUS, INC.",11/27/2013 12:00:00 AM,12/31/2016 12:00:00 AM,Malt Wine,49,50,  Dalton ST,"(42.347065, -71.085643)",42.3472132,-71.0854097
HAMPSHIRE HOUSE CORPORATION,11/19/2013 12:00:00 AM,12/31/2016 12:00:00 AM,All Alc,569,84,  Beacon ST,"(42.355981, -71.071299)",42.3559525,-71.0712576
"BIC BURGERS SPRING STREET, LLC",11/29/2013 12:00:00 AM,12/31/2016 12:00:00 AM,Malt Wine,103,77,  Spring ST,"(42.277765, -71.16403)",42.277312306122454,-71.16488436734694
BIC Burgers Commonwealth LLC,11/29/2013 12:00:00 AM,12/31/2016 12:00:00 AM,Malt Wine,110,961,  Commonwealth AV,"(42.35192, -71.11908)",42.3520884,-71.11910288344623
"C & H, INC.",11/14/2013 12:00:00 AM,12/31/2016 12:00:00 AM,All Alc,193,252,  Western AV,"(42.363164, -71.132799)",42.36326690095688,-71.13284054624827
REINA HENRIQUEZ,11/19/2013 12:00:00 AM,12/31/2016 12:00:00 AM,All Alc Restr,19,80,  Bennington ST,"(42.37608, -71.0361)",42.375080825,-71.03861479999999
"CAFFÉ DELLO SPORT, INC.",11/29/2013 12:00:00 AM,12/31/2016 12:00:00 AM,All Alc,75,308,  Hanover ST,"(0.0, 0.0)",42.3642471,-71.0541324
"CAFFE PARADISO, INC.",11/26/2013 12:00:00 AM,12/31/2016 12:00:00 AM,All Alc,130,255,  Hanover ST,"(42.363223, -71.054789)",42.36327822222223,-71.05487755555555
"CAFFE VITTORIA, INC.",11/19/2013 12:00:00 AM,12/31/2016 12:00:00 AM,All Alc,181,296,  Hanover ST,"(42.36414, -71.05435)",42.36321265306122,-71.05559585714286
"HUNTINGTON THEATRE COMPANY, INC.",11/22/2013 12:00:00 AM,12/31/2016 12:00:00 AM,Malt Wine,929,527, Tremont St,"(0.0, 0.0)",42.344649,-71.070593
"CALIFORNIA PIZZA KITCHEN,INC.",11/25/2013 12:00:00 AM,12/31/2016 12:00:00 AM,All Alc,175,800,  Boylston ST,"(42.347296, -71.081457)",42.3471718,-71.08250628733232
"J. P. PARTNERS, INC.",11/08/2013 12:00:00 AM,12/31/2016 12:00:00 AM,All Alc,150,435,S Huntington AV,"(42.31979, -71.112)",42.31979175,-71.11201272803878
"FFC, INC.",03/16/2016 12:00:00 AM,12/31/2016 12:00:00 AM,All Alc,180,346, Hanover St,"(0.0, 0.0)",42.364967,-71.0534245
"443 BROADWAY, LLC",11/22/2013 12:00:00 AM,12/31/2016 12:00:00 AM,All Alc,360,439,W Broadway ,"(42.33615, -71.04718)",42.33629283242488,-71.04712786600638
"READVILLE TAVERN, INC.",11/25/2013 12:00:00 AM,12/31/2016 12:00:00 AM,All Alc,85,11,  Wolcott CT,"(42.237865, -71.131859)",42.23779331280408,-71.13173357561563
"CARLO'S CUCINA ITALIANA, INC.",11/29/2013 12:00:00 AM,12/31/2016 12:00:00 AM,All Alc,48,131,  Brighton AV,"(42.353088, -71.131159)",42.352815,-71.13171264285714
"SCHIAFFO, INC.",11/22/2013 12:00:00 AM,12/31/2016 12:00:00 AM,All Alc,38,307,  Hanover ST,"(42.36388, -71.05416)",42.3640518,-71.0540612
"CROKE PARK, INC.",11/29/2013 12:00:00 AM,12/31/2016 12:00:00 AM,All Alc,67,268,W Broadway ,"(42.339275, -71.051191)",42.339219373129076,-71.05128604075766
"JACKEENS, INC.",11/25/2013 12:00:00 AM,12/31/2016 12:00:00 AM,All Alc,358,11,  Beacon ST,"(42.35838, -71.06178)",42.3583818,-71.061713
"DU FOURS, INC.",11/21/2013 12:00:00 AM,12/31/2016 12:00:00 AM,All Alc,104,30,  Gloucester ST,"(42.349444, -71.084498)",42.3494382,-71.0845647
711 CENTRE LLC,11/29/2013 12:00:00 AM,12/31/2016 12:00:00 AM,All Alc,58,711,  Centre ST,"(42.311378, -71.114669)",42.3113581,-71.1146111
"OLIVER TWIST, INC.",11/26/2013 12:00:00 AM,12/31/2016 12:00:00 AM,All Alc,960,62, Brookline Av,"(0.0, 0.0)",42.347316,-71.098196
"WEST END DINING, LLC",11/27/2013 12:00:00 AM,12/31/2016 12:00:00 AM,All Alc,199,65,  Causeway ST,"(42.364444, -71.062676)",42.36457585714286,-71.06269885714286
"PARK AVENUE GROUP, INC.",11/18/2013 12:00:00 AM,12/31/2016 12:00:00 AM,All Alc,157,1406,  Hyde Park AV,"(42.25062, -71.12573)",42.2505609,-71.1258643
"OZNEMOC, INC.",11/22/2013 12:00:00 AM,12/31/2016 12:00:00 AM,All Alc,394,12,  Lagrange ST,"(42.351434, -71.063278)",42.273314606054534,-71.14418316447865
"BOSTON CULINARY GROUP, INC.",11/26/2013 12:00:00 AM,12/31/2016 12:00:00 AM,All Alc,5443,290,  Northern AV,"(0.0, 0.0)",42.34850265,-71.03594064313015
"O&M PARTNERS, LLC",11/29/2013 12:00:00 AM,12/31/2016 12:00:00 AM,All Alc,96,1664, Dorchester Av,"(42.293958, -71.06222)",42.2934803867454,-71.06202990844388
"FACILITY CONCESSION SERVICES, INC.",11/25/2013 12:00:00 AM,12/31/2016 12:00:00 AM,All Alc,871,74,  Warrenton ST,"(42.34996, -71.06617)",42.349764621541766,-71.06633440021479
"CHAU CHOW CITY, INC.",11/22/2013 12:00:00 AM,12/31/2016 12:00:00 AM,All Alc,552,81,  Essex ST,"(42.35241, -71.06026)",42.37951370193645,-71.07037552964022
HAMPSHIRE HOUSE CORPORATION,11/19/2013 12:00:00 AM,12/31/2016 12:00:00 AM,All Alc,301,29,  Faneuil Hall SQ,"(0.0, 0.0)",42.3601809,-71.056504
NEW TIMES GROUP CORPORATION,11/21/2013 12:00:00 AM,12/31/2016 12:00:00 AM,All Alc,40,30,  Massachusetts AV,"(42.35037, -71.08902)",42.3504266,-71.0890446
"HAPPY DUCK, INC.",11/19/2013 12:00:00 AM,12/31/2016 12:00:00 AM,Malt Wine,78,829,  Boylston ST,"(42.34894, -71.08267)",42.348913,-71.0826427
"MW & W, INC.",11/26/2013 12:00:00 AM,12/31/2016 12:00:00 AM,All Alc,645,9,  Tyler ST,"(42.351085, -71.060788)",42.3510259,-71.0607541
"CORREIA, INC.",11/27/2013 12:00:00 AM,12/31/2016 12:00:00 AM,All Alc,80,257,  Norfolk AV,"(42.323726, -71.068078)",42.324661,-71.068895
"DURIAN CAFE, INC.",12/09/2013 12:00:00 AM,12/31/2016 12:00:00 AM,Malt Wine,46,187, Main St,"(0.0, 0.0)",42.37593085714286,-71.06482785714286
"SOUTH END JOINT VENTURE III (SEJV III), GENERAL PARTNERSHIP",11/22/2013 12:00:00 AM,12/31/2016 12:00:00 AM,All Alc Restr,300,490,  Harrison AV,"(42.342141, -71.065789)",42.34218,-71.06584433333333
"CITY TAP HOUSE FORT POINT, LLC",11/25/2013 12:00:00 AM,12/31/2016 12:00:00 AM,All Alc,0,22,  Boston Wharf RD,"(42.35045, -71.046974)",42.35043815,-71.04698594908186
MCBOIS LIMITED,12/01/2013 12:00:00 AM,12/31/2016 12:00:00 AM,All Alc,40,278,  Shawmut AV,"(42.342938, -71.06889)",42.34301969230769,-71.0689276923077
"MILE 22, INC.",11/29/2013 12:00:00 AM,12/31/2016 12:00:00 AM,All Alc,240,1958,  BEACON ST,"(0.0, 0.0)",42.33631857049252,-71.149640310387
"A.T.G., INC.",11/25/2013 12:00:00 AM,12/31/2016 12:00:00 AM,All Alc,349,331,  Columbus AV,"(42.346243, -71.0752)",42.3460947027027,-71.07514018918918
BALTARY CORP.,11/21/2013 12:00:00 AM,12/31/2016 12:00:00 AM,All Alc,90,342,W Broadway ,"(0.0, 0.0)",42.33825262175001,-71.04981492632083
"Clover Fast Food, Inc.",11/20/2013 12:00:00 AM,12/31/2016 12:00:00 AM,All Alc,0,27, School St,"(42.35772, -71.05907)",42.357701,-71.0591519
BHC CORPORATION GENERAL PARTNER,11/14/2013 12:00:00 AM,12/31/2016 12:00:00 AM,All Alc,433,209,  Columbus AV,"(42.348549, -71.07237)",42.34860125,-71.07234395
"COLUMBUS PARTNERS, INC.",11/08/2013 12:00:00 AM,12/31/2016 12:00:00 AM,All Alc,70,329,  Columbus AV,"(42.34632, -71.075098)",42.34612705405405,-71.07509978378378
"1844, INC.",11/27/2013 12:00:00 AM,12/31/2016 12:00:00 AM,Malt Wine,26,1844,  Centre ST,"(42.28632, -71.154101)",42.2978789,-71.1302825
"PIER 50, LLC",12/01/2013 12:00:00 AM,12/31/2016 12:00:00 AM,All Alc,237,50, Northern Av,"(0.0, 0.0)",42.3534728,-71.0462789
"BKW PARTNERS, INC.",11/19/2013 12:00:00 AM,12/31/2016 12:00:00 AM,All Alc,123,329,  Huntington AV,"(42.340923, -71.08819)",42.266642749999995,-71.1168025
"ONE HUNDRED SEVENTY THREE MILK ST.,INC.",11/25/2013 12:00:00 AM,12/31/2016 12:00:00 AM,All Alc,203,171,  Milk ST,"(42.35827, -71.0533)",42.3583073,-71.053295
VERVEINE CORP.,11/25/2013 12:00:00 AM,12/31/2016 12:00:00 AM,All Alc,40,253,  Shawmut AV,"(0.0, 0.0)",42.343392,-71.068631
"CORNER CAFE, INC..",11/25/2013 12:00:00 AM,12/31/2016 12:00:00 AM,All Alc,32,87,  Prince ST,"(42.36561, -71.05597)",42.3123089,-71.12119139524674
"CHIN FAMILY, LLC",11/27/2013 12:00:00 AM,12/31/2016 12:00:00 AM,All Alc,54,162, Lincoln St,"(0.0, 0.0)",42.35800190909091,-71.14033627272727
"BRAEMORE LOUNGE, INC.",11/26/2013 12:00:00 AM,12/31/2016 12:00:00 AM,All Alc,170,652,  Beacon ST,"(0.0, 0.0)",42.34928094736842,-71.09559878947368
"CONEY ISLAND BAR, INC.",11/18/2013 12:00:00 AM,12/31/2016 12:00:00 AM,All Alc,180,396,  Market ST,"(42.3499, -71.15277)",42.34995,-71.152902
"LAGRANGE LOUNGE AND RESTAURANT, INC.",11/26/2013 12:00:00 AM,12/31/2016 12:00:00 AM,All Alc,250,2022,  Centre ST,"(42.280802, -71.157911)",42.28116414461903,-71.1580060440617
"COSMOPOLITAN LOUNGE, INC.",11/21/2013 12:00:00 AM,12/31/2016 12:00:00 AM,All Alc,94,276,  Bennington ST,"(0.0, 0.0)",42.378617767666526,-71.02884664901956
"COSTELLO'S TAVERN, INC.",11/22/2013 12:00:00 AM,12/31/2016 12:00:00 AM,All Alc,150,717,  Centre ST,"(42.31124, -71.11473)",42.31128185,-71.11476158511257
JOHNNY BOY'S INC.,11/26/2013 12:00:00 AM,12/31/2016 12:00:00 AM,All Alc,48,1227, Hyde Park Av,"(42.257202, -71.124063)",42.256888762404124,-71.123980797906
"TURNAROUND SUSHI, INC.",12/01/2013 12:00:00 AM,12/31/2016 12:00:00 AM,All Alc,108,75,  Kneeland ST,"(42.350178, -71.06061)",42.3502446,-71.060791
"CRAZY DOUGH BOYLSTON, LLC",11/18/2013 12:00:00 AM,12/31/2016 12:00:00 AM,Malt Wine,49,1124, Boylston St,"(0.0, 0.0)",42.3467379,-71.0889394
Bobby Charlton LLC,11/25/2013 12:00:00 AM,12/31/2016 12:00:00 AM,All Alc,196,495,  Beacon ST,"(42.350586, -71.08976)",42.3504821,-71.08973245284932
CRUDO NORTH END LLC,11/25/2013 12:00:00 AM,12/31/2016 12:00:00 AM,All Alc,76,78,  Salem ST,"(42.36369, -71.05591)",42.377501333333335,-71.066486875
"FIRE IT UP STATE STREET,LLC",11/06/2013 12:00:00 AM,12/31/2016 12:00:00 AM,All Alc,19,107, State St,"(0.0, 0.0)",42.359115,-71.054851
Russian Benevolent society,11/21/2013 12:00:00 AM,12/31/2016 12:00:00 AM,All Alc,440,14,  Linden ST,"(42.35537, -71.13028)",42.3555998,-71.1307446
"PAIGE HOSPITALITY, INC.",11/21/2013 12:00:00 AM,12/31/2016 12:00:00 AM,All Alc,382,246,  Tremont ST,"(42.350688, -71.064668)",42.3507175,-71.0646947
MCCARTHY'S INC. OF BOSTON,11/26/2013 12:00:00 AM,12/31/2016 12:00:00 AM,All Alc,73,1592,  Tremont ST,"(0.0, 0.0)",42.333496125,-71.103059375
EIGHT REGIONS LLC,11/20/2013 12:00:00 AM,12/31/2016 12:00:00 AM,All Alc,101,162,  Columbus AV,"(42.349256, -71.070608)",42.34957267346939,-71.07043314285714
"DARRYLS'S CORNER BAR & KITCHEN, INC.",11/25/2013 12:00:00 AM,12/31/2016 12:00:00 AM,All Alc,108,604,  Columbus AV,"(42.33975, -71.082398)",42.3398422,-71.0824905
"75 ARLINGTON STREET, INC.",11/29/2013 12:00:00 AM,12/31/2016 12:00:00 AM,All Alc,234,75,  Arlington ST,"(42.35068, -71.07036)",42.3504901,-71.07036171528705
BRIGHTON R.I CORPORATION,11/22/2013 12:00:00 AM,12/31/2016 12:00:00 AM,All Alc,168,1234,  Soldiers Field RD,"(42.3637, -71.13638)",42.3641236,-71.1365224
"CHEESINE, INC.",11/07/2013 12:00:00 AM,12/31/2016 12:00:00 AM,Malt Wine,48,399,W Broadway  ,"(0.0, 0.0)",42.33706127777778,-71.04831466666667
DECIBEL ENTERPRISES LLC,11/21/2013 12:00:00 AM,12/31/2016 12:00:00 AM,All Alc,180,1238,  Dorchester AV,"(0.0, 0.0)",42.30839555476936,-71.05813828315502
"DEEP ELLUM, INC.",11/26/2013 12:00:00 AM,12/31/2016 12:00:00 AM,All Alc,148,477,  Cambridge ST,"(42.353902, -71.13703)",42.3539041,-71.1370766
"DEL FRISCO'S OF BOSTON, LLC",11/18/2013 12:00:00 AM,12/31/2016 12:00:00 AM,All Alc,400,230,  Northern AV,"(0.0, 0.0)",42.348738600000004,-71.0384944
CARLOS MARTE,11/26/2013 12:00:00 AM,12/31/2016 12:00:00 AM,Malt Wine,117,635,  Hyde Park AV,"(0.0, 0.0)",42.27846731058655,-71.11932022801163
COLUMBUS MANAGING CORP.,11/26/2013 12:00:00 AM,12/31/2016 12:00:00 AM,Malt Wine,49,754,  South ST,"(42.28702, -71.12948)",42.287009791724095,-71.1293300076038
"South Street Group, Inc.",02/20/2015 12:00:00 AM,12/31/2016 12:00:00 AM,All Alc Restr,0,753,  South ST,"(42.287196, -71.129241)",42.28800425074107,-71.13090704781409
"TWO AVENUES, INC.",11/21/2013 12:00:00 AM,12/31/2016 12:00:00 AM,All Alc,98,61,  Massachusetts AV,"(0.0, 0.0)",42.34956655,-71.08909305023118
DEV CORP.,11/22/2013 12:00:00 AM,12/31/2016 12:00:00 AM,All Alc,120,332,  Washington ST,"(42.348878, -71.152342)",42.3488821,-71.15233004550491
"THE PITCHER'S MOUND, INC.",11/29/2013 12:00:00 AM,12/31/2016 12:00:00 AM,All Alc,39928,72, Brookline Av,"(0.0, 0.0)",42.3387095,-71.10787595833334
"EFTSROT, LLC",11/20/2013 12:00:00 AM,12/31/2016 12:00:00 AM,Malt Wine,72,23,  Tyler ST,"(42.350724, -71.060979)",42.246233700000005,-71.12499364722146
"DICK'S LAST RESORT OF BOSTON,LLC",11/21/2013 12:00:00 AM,12/31/2016 12:00:00 AM,All Alc,138,100,  Faneuil Hall SQ,"(42.360131, -71.054954)",42.3601809,-71.056504
955 LLC,11/25/2013 12:00:00 AM,12/31/2016 12:00:00 AM,All Alc,264,951,  Boylston ST,"(42.348051, -71.085767)",42.348090586206894,-71.08515086206897
COBBAGE RESTAURANT CORP.,12/02/2013 12:00:00 AM,12/31/2016 12:00:00 AM,Malt Wine,18,141,  Salem ST,"(42.365059, -71.055378)",42.36511,-71.055345
"SS INVESTMENTS, INC.",11/14/2013 12:00:00 AM,12/31/2016 12:00:00 AM,Malt Wine,49,222,  Newbury ST,"(42.34975, -71.08108)",42.3497522,-71.0810802
"LA ROCA, INC.",11/13/2013 12:00:00 AM,12/31/2016 12:00:00 AM,All Alc,99,221, Hanover St,"(0.0, 0.0)",42.36280793548387,-71.05535651612904
"DONATO & GIANNI, LLC",11/29/2013 12:00:00 AM,12/31/2016 12:00:00 AM,All Alc,116,326,  Commercial ST,"(42.3654, -71.05142)",42.36533323076923,-71.0512136923077
"J.J. DONOVAN, INC.",11/19/2013 12:00:00 AM,12/31/2016 12:00:00 AM,All Alc,80,27,  Clinton ST,"(0.0, 0.0)",42.36061317054704,-71.0552208047678
"AC NEP, LLC",11/14/2013 12:00:00 AM,12/31/2016 12:00:00 AM,All Alc,264,367,  Neponset AV,"(42.2867, -71.04513)",42.286999476395,-71.04568989517531
"Pavan Restaurant Group, Inc.",11/13/2013 12:00:00 AM,12/31/2016 12:00:00 AM,All Alc,49,316, Newbury St,"(42.34862, -71.085413)",42.3486116,-71.0854119
Henry's Garrett Catering LLC,01/23/2015 12:00:00 AM,12/31/2016 12:00:00 AM,All Alc Restr,40,1739, Dorchester Av,"(0.0, 0.0)",42.29084566666667,-71.062989
"DOT TAVERN, INC.",11/26/2013 12:00:00 AM,12/31/2016 12:00:00 AM,All Alc,99,840,  Dorchester AV,"(42.322159, -71.056601)",42.32214525,-71.05659537498019
"OCEAN TREASURE, INC.",11/25/2013 12:00:00 AM,12/31/2016 12:00:00 AM,Malt Wine,127,84,  Harrison AV,"(42.350806, -71.061206)",42.33461717346939,-71.07523198979592
"SPELLBURKE, INC.",11/26/2013 12:00:00 AM,12/31/2016 12:00:00 AM,All Alc,265,3484,  Washington ST,"(42.30644, -71.10723)",42.3065707,-71.1072478
"RENDON FOODS, INC.",11/06/2013 12:00:00 AM,12/31/2016 12:00:00 AM,All Alc,56,182,  Sumner ST,"(42.369371, -71.040322)",42.369256,-71.040392
348 CONGRESS LLC,11/22/2013 12:00:00 AM,12/31/2016 12:00:00 AM,All Alc Restr,301,348, Congress St,"(0.0, 0.0)",42.3505525,-71.0485101
"ROSSMORE CAFE, INC.",11/27/2013 12:00:00 AM,12/31/2016 12:00:00 AM,All Alc,86,3520,  Washington ST,"(42.305511, -71.108121)",42.30573388888889,-71.10807755555555
M.Y.N. CORP.,11/29/2013 12:00:00 AM,12/31/2016 12:00:00 AM,All Alc,223,7,  Stoughton ST,"(0.0, 0.0)",42.31680271474581,-71.06477696937866
SEI STELLE LLC,11/26/2013 12:00:00 AM,12/31/2016 12:00:00 AM,All Alc,58,289, Causeway St,"(0.0, 0.0)",42.367029375,-71.05824825
nan,08/03/2015 12:00:00 AM,12/31/2016 12:00:00 AM,Malt Wine,48,15, Warren St,"(0.0, 0.0)",42.329941,-71.0834291
"HALEY HOUSE, INC.",11/19/2015 12:00:00 AM,12/31/2016 12:00:00 AM,Malt Wine,37,2302, Washington St,"(0.0, 0.0)",42.2620157,-71.1564057
"DUMPLING CAFÉ, INC.",11/21/2013 12:00:00 AM,12/31/2016 12:00:00 AM,All Alc Restr,48,695,  Washington ST,"(0.0, 0.0)",42.3512206,-71.0630527
"DUMPLING GOURMET, INC.",11/26/2013 12:00:00 AM,12/31/2016 12:00:00 AM,Malt Wine,56,52,  Beach ST,"(42.35152, -71.06065)",42.3514972,-71.06056
ARK BOSTON RSS CORP.,11/22/2013 12:00:00 AM,12/31/2016 12:00:00 AM,All Alc,573,331, Faneuil Hall Marketplace ,"(0.0, 0.0)",42.36005485,-71.05460485041264
SOMERS FIVE CORP.,11/27/2013 12:00:00 AM,12/31/2016 12:00:00 AM,All Alc,46,108,  Blackstone ST,"(42.361696, -71.056576)",42.3616934,-71.0565718
"FIVE TWENTY TREMONT, INC.",11/13/2013 12:00:00 AM,12/31/2016 12:00:00 AM,All Alc,138,520, Tremont St,"(0.0, 0.0)",42.344716,-71.07022
"REBECCA'S CAFÉ, INC.",11/26/2013 12:00:00 AM,12/31/2016 12:00:00 AM,All Alc,400,212, Northern Av,"(42.350415, -71.038224)",42.3518965,-71.0374264
"TKL,INC.",11/25/2013 12:00:00 AM,12/31/2016 12:00:00 AM,All Alc,156,25,  Beach ST,"(42.351311, -71.06182)",42.302156525996566,-71.05511494032612
"ESHL, LLC",11/26/2013 12:00:00 AM,12/31/2016 12:00:00 AM,All Alc,398,528,  Commonwealth AV,"(42.348498, -71.09622)",42.3485601,-71.0961765
SAINT DECLAN CORPORATION,11/20/2013 12:00:00 AM,12/31/2016 12:00:00 AM,All Alc,249,1883,  Centre ST,"(42.28595, -71.15582)",42.28592875,-71.15584125658722
"EATALY BOSTON, LLC",11/27/2013 12:00:00 AM,12/31/2016 12:00:00 AM,All Alc,0,800,  Boylston ST,"(42.34716, -71.08251)",42.3471718,-71.08250628733232
"D & NICKOTA ENTERPRISES, INC.",11/14/2013 12:00:00 AM,12/31/2016 12:00:00 AM,All Alc,92,107,  Porter ST,"(0.0, 0.0)",42.372983,-71.0360367
"CONTILLI'S, INC.",11/22/2013 12:00:00 AM,12/31/2016 12:00:00 AM,All Alc,92,34,  Maverick SQ,"(42.369961, -71.039351)",42.3699196,-71.0392831
SIRAJ CORPORATION,11/27/2013 12:00:00 AM,12/31/2016 12:00:00 AM,All Alc,45,474,  Shawmut AV,"(42.338556, -71.075908)",42.338585,-71.07600716666667
"L.L. & A, INC.",11/27/2013 12:00:00 AM,12/31/2016 12:00:00 AM,All Alc,99,972,  Saratoga ST,"(0.0, 0.0)",42.387063496951235,-71.00767255195046
EC RESTAURANTS (BOSTON) CORP.,11/26/2013 12:00:00 AM,12/31/2016 12:00:00 AM,All Alc,290,161,  Devonshire ST,"(42.356286, -71.0575)",42.3562108,-71.0575678664855
EMERSON COLLEGE,11/27/2013 12:00:00 AM,12/31/2016 12:00:00 AM,All Alc,1727,543,  Washington ST,"(0.0, 0.0)",42.34939850429572,-71.16367703130531
EMERSON COLLEGE,10/01/2013 12:00:00 AM,12/31/2016 12:00:00 AM,All Alc,1157,219,  Tremont ST,"(42.35157, -71.06502)",42.3515489,-71.06510392722366
"BIG NIGHT VENUES BOSTON 2, LLC",11/25/2013 12:00:00 AM,12/31/2016 12:00:00 AM,All Alc,540,1,  Marina Park DR,"(0.0, 0.0)",42.3529429,-71.0452919
"EMPIRE GARDEN RESTAURANT, LLC",11/22/2013 12:00:00 AM,12/31/2016 12:00:00 AM,All Alc,801,680,  Washington ST,"(0.0, 0.0)",42.3517149,-71.17175472807767
"EQUATOR, INC.",11/27/2013 12:00:00 AM,12/31/2016 12:00:00 AM,Malt Wine,49,1721,  Washington ST,"(42.337071, -71.076601)",42.2620157,-71.1564057
"LIBELLULA, LLC",11/21/2013 12:00:00 AM,12/31/2016 12:00:00 AM,All Alc Restr,185,69,  Church ST,"(42.35015, -71.06839)",42.24981596153847,-71.13387138461538
"IRISH PUB, INC.",11/25/2013 12:00:00 AM,12/31/2016 12:00:00 AM,All Alc,101,795, Adams St,"(0.0, 0.0)",42.2832016,-71.0559164
"GAMBROS, INC.",11/15/2013 12:00:00 AM,12/31/2016 12:00:00 AM,Malt Wine,40,69,  Salem ST,"(42.36335, -71.05584)",42.3633795,-71.0559078
"CENTER HOUSE OF PIZZA, INC.",11/29/2013 12:00:00 AM,12/31/2016 12:00:00 AM,Malt Wine,44,344,  Washington ST,"(42.348864, -71.152918)",42.299519,-71.073659
"2261 Dot, LLC",11/26/2013 12:00:00 AM,12/31/2016 12:00:00 AM,All Alc,140,2261, Dorchester Av,"(0.0, 0.0)",42.273152,-71.067937
"BIG TIME BOSTON FOOD, INC.",07/29/2015 12:00:00 AM,12/31/2016 12:00:00 AM,All Alc Restr,108,700,  Harrison AV,"(42.338319, -71.070696)",42.338636,-71.070395
"CILL DARA, INC.",11/25/2013 12:00:00 AM,12/31/2016 12:00:00 AM,All Alc,81,3700,  Washington ST,"(42.30053, -71.112809)",42.3005521,-71.1128599
"FAJITAS  & 'RITAS, INC.",11/27/2013 12:00:00 AM,12/31/2016 12:00:00 AM,All Alc,170,25,  West ST,"(0.0, 0.0)",42.3548936,-71.0625949
Buckminster Restaurant Group LLC,11/20/2013 12:00:00 AM,12/31/2016 12:00:00 AM,All Alc,90,645,  Beacon ST,"(42.348363, -71.097697)",42.34836865,-71.09774694105823
"OLIVES, INC.",11/25/2013 12:00:00 AM,12/31/2016 12:00:00 AM,Malt Wine,42,42,  Charles ST,"(42.357234, -71.070195)",42.3572305,-71.0701821
"OLIVES, INC.",11/25/2013 12:00:00 AM,12/31/2016 12:00:00 AM,Malt Wine,59,67,  Main ST,"(42.373647, -71.06239)",42.3736375,-71.062397
"VIA VENETO RESTAURANT, INC.",11/26/2013 12:00:00 AM,12/31/2016 12:00:00 AM,All Alc,272,283,  Causeway ST,"(42.366963, -71.05818)",42.366975,-71.058327
ROOM FOR DESSERT LLC,12/02/2013 12:00:00 AM,12/31/2016 12:00:00 AM,All Alc,90,13,  Columbus AV,"(0.0, 0.0)",42.35136525,-71.06856525
FINS SUSHI & GRILL,11/15/2013 12:00:00 AM,12/31/2016 12:00:00 AM,Malt Wine,78,354,  Chestnut Hill AV,"(42.33691, -71.15157)",42.3368637,-71.1516502
2000 CHEF FOOD CORP.,11/18/2013 12:00:00 AM,12/31/2016 12:00:00 AM,All Alc Restr,60,636, Beacon St,"(0.0, 0.0)",42.3494898,-71.0952642
"Bento Express, Inc.",07/13/2015 12:00:00 AM,12/31/2016 12:00:00 AM,All Alc Restr,45,62,  Boylston ST,"(42.35199, -71.06439)",42.3522389,-71.0644358
"OMEGA SUSHI, INC.",11/18/2013 12:00:00 AM,12/31/2016 12:00:00 AM,Malt Wine,60,236,  Cambridge ST,"(42.360991, -71.066822)",42.360974999999996,-71.06682341691774
"ROUND GRILLE SERVICES, INC.",11/15/2013 12:00:00 AM,12/31/2016 12:00:00 AM,All Alc,375,31,  Saint James AV,"(42.351109, -71.07458)",42.3509401,-71.0717712
"JNK, INC.",11/29/2013 12:00:00 AM,12/31/2016 12:00:00 AM,Malt Wine,19,170,  Brighton AV,"(42.352902, -71.132981)",42.35288880469563,-71.13231554916752
"LLOB ASSOCIATES, LLC",11/08/2013 12:00:00 AM,12/31/2016 12:00:00 AM,All Alc,74,533,  Columbus AV,"(42.34186, -71.08059)",42.34174866666667,-71.080506
"Lucky Five Restaruant, Inc.",11/22/2013 12:00:00 AM,12/31/2016 12:00:00 AM,Malt Wine,78,58,  Beach ST,"(42.35148, -71.06045)",42.3012178,-71.05484010581738
"FLAMES RESTAURANT II, INC.",11/19/2013 12:00:00 AM,12/31/2016 12:00:00 AM,All Alc Restr,40,746,  Huntington AV,"(42.33363, -71.10549)",42.333938184558946,-71.10550655048
"KITTY O'SHEA'S, INC.",11/19/2013 12:00:00 AM,12/31/2016 12:00:00 AM,All Alc,90,1619,  Tremont ST,"(42.333842, -71.103341)",42.333789,-71.10341
"OS PRIME, LLC",11/26/2013 12:00:00 AM,12/31/2016 12:00:00 AM,All Alc,358,201, Stuart St,"(0.0, 0.0)",42.350836,-71.067729
"FLORENTINE CAFE, INC.",11/19/2013 12:00:00 AM,12/31/2016 12:00:00 AM,All Alc,118,333,  Hanover ST,"(0.0, 0.0)",42.364354,-71.053738
"THE FLORIAN ASSOCIATES, INC.",11/14/2013 12:00:00 AM,12/31/2016 12:00:00 AM,All Alc,689,55,  Hallet ST,"(42.282376, -71.047658)",42.28240395,-71.0476333651287
FOGO DE CHAO CHURRASCARIA(BOSTON)LLC,11/20/2013 12:00:00 AM,12/31/2016 12:00:00 AM,All Alc,334,200,  Dartmouth ST,"(0.0, 0.0)",42.34851462752494,-71.0766408759061
"J. J. FOLEY'S FIRESIDE TAVERN, INC.",11/25/2013 12:00:00 AM,12/31/2016 12:00:00 AM,All Alc,99,30, Hyde Park Av,"(0.0, 0.0)",42.2992125,-71.1138118
"BNV 4, INC.",11/19/2013 12:00:00 AM,12/31/2016 12:00:00 AM,All Alc,312,755,  Boylston ST,"(42.34938, -71.0811)",42.3493339,-71.0810065
"BOSTON FOUR WINDS, INC.",11/27/2013 12:00:00 AM,12/31/2016 12:00:00 AM,All Alc,160,266,  Commercial ST,"(42.36432, -71.05135)",42.364306150000004,-71.05135213672727
"SAPHO, INC.",11/27/2013 12:00:00 AM,12/31/2016 12:00:00 AM,All Alc,395,166,  Canal ST,"(0.0, 0.0)",42.3650161,-71.0609394
"VILLA FRANCESCA'S, INC.",11/25/2013 12:00:00 AM,12/31/2016 12:00:00 AM,All Alc,129,150,  Richmond ST,"(42.363348, -71.054559)",42.363313600000005,-71.054464
"DEUTERIO'S, INC.",11/25/2013 12:00:00 AM,12/31/2016 12:00:00 AM,Malt Wine,64,289, Hanover St,"(0.0, 0.0)",42.363204438775504,-71.05558135714286
"GAME ON FENWAY, LLC",11/26/2013 12:00:00 AM,12/31/2016 12:00:00 AM,All Alc,689,72,  Lansdowne  ,"(0.0, 0.0)",42.3474997,-71.0996412
"SOUTH END BERKELEY, LLC",11/15/2013 12:00:00 AM,12/31/2016 12:00:00 AM,All Alc,239,560,  Harrison AV,"(42.34081, -71.06744)",42.3409422,-71.0673326
"NORTHERN AVENUE HOSPITALITY, INC.",11/26/2013 12:00:00 AM,12/31/2016 12:00:00 AM,All Alc,207,75,  Northern AV,"(0.0, 0.0)",42.352312749999996,-71.0452956304911
BIG NIGHT VENUES BOSTON 3 LLC,11/25/2013 12:00:00 AM,12/31/2016 12:00:00 AM,All Alc,244,44, Province St,"(42.356871, -71.059919)",42.3567935,-71.0600308
"5 NORTH SQUARE, INC.",11/22/2013 12:00:00 AM,12/31/2016 12:00:00 AM,All Alc,103,5,  North SQ,"(42.36399, -71.05357)",42.3640061,-71.0535524
HANOVER CORPORATION,11/13/2013 12:00:00 AM,12/31/2016 12:00:00 AM,Malt Wine,28,355, Hanover St,"(0.0, 0.0)",42.364597,-71.0534901
COLUMBUS CORPORATION,11/13/2013 12:00:00 AM,12/31/2016 12:00:00 AM,All Alc,39,431,  Columbus AV,"(42.344074, -71.077812)",42.3441327,-71.0774061
"NEW HOUSE OF TOY, INC.",11/15/2013 12:00:00 AM,12/31/2016 12:00:00 AM,Malt Wine,110,14, Hudson St,"(42.350621, -71.059908)",42.35069045454546,-71.059955
"CANTONA, INC.",11/22/2013 12:00:00 AM,12/31/2016 12:00:00 AM,All Alc,122,565,  Boylston ST,"(42.350654, -71.076368)",42.3506128,-71.0763406
TRIPLE EIGHT MANAGEMENT CORP.,11/25/2013 12:00:00 AM,12/31/2016 12:00:00 AM,Malt Wine,300,20, Hudson St,"(42.350406, -71.059976)",42.3504062,-71.05996653519512
"BUCCINO INVESTMENTS, LLC",11/27/2013 12:00:00 AM,12/31/2016 12:00:00 AM,All Alc,176,28, Kingston St,"(42.35344, -71.05904)",42.3533994,-71.0591955
"KLK3, INC.",11/22/2013 12:00:00 AM,12/31/2016 12:00:00 AM,All Alc,19,605,  Centre ST,"(42.31478, -71.114279)",42.2978789,-71.1302825
"KKCB, LLC",03/17/2016 12:00:00 AM,12/31/2016 12:00:00 AM,All Alc Restr,70,3698,  Washington ST,"(42.300583, -71.112757)",42.3006111,-71.1128068
"MONTGOMERY, INC.",11/19/2013 12:00:00 AM,12/31/2016 12:00:00 AM,All Alc,240,1222,  Commonwealth AV,"(42.350727, -71.13097)",42.35017893870221,-71.13052005478087
"JOHN J. SOMERS CO.,INC.",11/27/2013 12:00:00 AM,12/31/2016 12:00:00 AM,All Alc,149,11,  Marshall ST,"(42.361469, -71.056839)",42.3615079,-71.0568617
BERKELEY PLACE RESTAURANT LIMITED PARTNERSHIP,11/21/2013 12:00:00 AM,12/31/2016 12:00:00 AM,All Alc,487,340, Stuart St,"(0.0, 0.0)",42.34935410673791,-71.07257358674083
"SARKIS, INC.",03/14/2014 12:00:00 AM,12/31/2016 12:00:00 AM,All Alc Restr,48,705,  Massachusetts AV,"(42.33487, -71.07545)",42.335765015625,-71.0758537890625
"GROTTO, INC.",11/27/2013 12:00:00 AM,12/31/2016 12:00:00 AM,All Alc,47,37,  Bowdoin ST,"(42.35991, -71.063085)",42.3599168,-71.0630117
"GUIRA & TAMBORA, LLC",11/15/2013 12:00:00 AM,12/31/2016 12:00:00 AM,Malt Wine,49,4014,  Washington ST,"(42.291827, -71.122157)",42.291846500000005,-71.1221408284091
"HALEY HOUSE, INC.",11/19/2013 12:00:00 AM,12/31/2016 12:00:00 AM,All Alc Restr,28,12, Dade St,"(0.0, 0.0)",42.331862701353266,-71.08228334105324
E.P.E. CORPORATION,11/20/2013 12:00:00 AM,12/31/2016 12:00:00 AM,Malt Wine,188,115, Causeway St,"(0.0, 0.0)",42.3650755,-71.0614919
"HARD ROCK CAFE INTERNATIONAL (STP), INC.",11/26/2013 12:00:00 AM,12/31/2016 12:00:00 AM,All Alc,680,20,  Clinton ST,"(42.360961, -71.054946)",42.36077388711886,-71.05534748676453
GALMIKE CORP.,11/29/2013 12:00:00 AM,12/31/2016 12:00:00 AM,All Alc,299,1099, Dorchester Av,"(0.0, 0.0)",42.313096,-71.057288
"CITY ROADHOUSE, INC.",12/01/2013 12:00:00 AM,12/31/2016 12:00:00 AM,All Alc,146,1430,  Commonwealth AV,"(0.0, 0.0)",42.3504455,-71.1093057
"142 Berkeley, LLC",11/27/2013 12:00:00 AM,12/31/2016 12:00:00 AM,All Alc,153,142,  Berkeley ST,"(42.348822, -71.072098)",42.3489076,-71.0721378
HARU PRUDENTIAL CORP.,11/29/2013 12:00:00 AM,12/31/2016 12:00:00 AM,All Alc,195,800,  Boylston ST,"(42.347296, -71.081457)",42.3471718,-71.08250628733232
"BEACON FINE DINING, INC.",11/26/2013 12:00:00 AM,12/31/2016 12:00:00 AM,All Alc,190,310,  Cambridge ST,"(42.36093, -71.06901)",42.3609461,-71.06893574012604
"88 BEACH, LLC",11/26/2013 12:00:00 AM,12/31/2016 12:00:00 AM,Malt Wine,625,88,  Beach ST,"(42.351328, -71.059821)",42.3510607,-71.0588241
"SOMERS BOSTON RESTAURANTS, INC.",11/27/2013 12:00:00 AM,12/31/2016 12:00:00 AM,All Alc,582,25,  Union ST,"(42.361014, -71.056731)",42.345170206226,-71.14832687182889
"HILL COUNTRY BOSTON, LLC",11/18/2013 12:00:00 AM,12/31/2016 12:00:00 AM,All Alc,0,374, Congress St,"(42.34993, -71.04741)",42.3500535,-71.04733567853867
"HILLSTONE RESTAURANT GROUP, INC.",11/19/2013 12:00:00 AM,12/31/2016 12:00:00 AM,All Alc,206,60,  State ST,"(42.35927, -71.05643)",42.35922935,-71.05642886016267
SAGARMATHA CORPORATION,11/26/2013 12:00:00 AM,12/31/2016 12:00:00 AM,All Alc Restr,49,1735,  Centre ST,"(42.287467, -71.149812)",42.2978789,-71.1302825
"HOME RUN CAFE, INC.",11/29/2013 12:00:00 AM,12/31/2016 12:00:00 AM,All Alc,88,1269,  Massachusetts AV,"(42.32146, -71.06264)",42.3215048,-71.0626138574059
"Hong Kong Eatery, Inc.",11/18/2013 12:00:00 AM,12/31/2016 12:00:00 AM,Malt Wine,60,79,  Harrison AV,"(42.35101, -71.06162)",42.33639687755102,-71.07216622448979
"HOT POT BUFFET, INC.",11/05/2013 12:00:00 AM,12/31/2016 12:00:00 AM,Malt Wine,288,70,  Beach ST,"(42.351353, -71.059891)",42.3513135,-71.0599233
"LANSDOWNE BOSTON RESTAURANT, LLC",11/22/2013 12:00:00 AM,12/31/2016 12:00:00 AM,All Alc,2834,15,  Lansdowne  ,"(0.0, 0.0)",42.3474997,-71.0996412
THAILAND INTERNATIONAL CORPORATION,11/21/2013 12:00:00 AM,12/31/2016 12:00:00 AM,Malt Wine,54,542,  Columbus AV,"(42.3414, -71.08034)",42.341099,-71.080886
"HIGH STREET RESTAURANT GROUP, LLC",11/29/2013 12:00:00 AM,12/31/2016 12:00:00 AM,All Alc,540,184,  High ST,"(42.35668, -71.05257)",42.3565905,-71.0527728
"FRIAR VENTURES, LLC",11/25/2013 12:00:00 AM,12/31/2016 12:00:00 AM,All Alc,699,150,  Canal ST,"(42.3648, -71.0608)",42.3648417,-71.0607328
"HSB, LLC",11/26/2013 12:00:00 AM,12/31/2016 12:00:00 AM,All Alc,395,498, Commonwealth Av,"(0.0, 0.0)",42.348719,-71.094798
ANTHONY OLIVIERO & LUIGI SODANO,11/25/2013 12:00:00 AM,12/31/2016 12:00:00 AM,Malt Wine,80,257,  North ST,"(42.363662, -71.051888)",42.363739,-71.05193
"IL PANINO, INC.",11/18/2013 12:00:00 AM,12/31/2016 12:00:00 AM,All Alc,92,11, Parmenter St,"(0.0, 0.0)",42.36389808838713,-71.05482216269216
"Boston's Best Seafood and BBQ,LLC",03/03/2014 12:00:00 AM,12/31/2016 12:00:00 AM,All Alc Restr,24,268, Centre St,"(0.0, 0.0)",42.29361643571984,-71.06253556910359
GAGAN CORPORATION,11/18/2013 12:00:00 AM,12/31/2016 12:00:00 AM,Malt Wine,58,484,  Commonwealth AV,"(42.34854, -71.09422)",42.3485475,-71.0942315
"INTERMISSION TAVERN, INC.",11/27/2013 12:00:00 AM,12/31/2016 12:00:00 AM,All Alc,64,228,  Tremont ST,"(42.351346, -71.064584)",42.35129675,-71.0647371875
INTERNAL MATTER LLC,11/22/2013 12:00:00 AM,12/31/2016 12:00:00 AM,Malt Wine,45,35,  Channel Center ST,"(42.346397, -71.050561)",42.34635755,-71.05055905840757
IRASHAI SUSHI AND TERIYAKI INC.,11/26/2013 12:00:00 AM,12/31/2016 12:00:00 AM,Malt Wine,45,8, Kneeland St,"(42.351008, -71.062428)",42.3510404,-71.0628464
"IRISH VILLAGE, INC.",11/21/2013 12:00:00 AM,12/31/2016 12:00:00 AM,All Alc,120,224,  Market ST,"(0.0, 0.0)",42.3548836,-71.1497828
"MCLAUGHLIN RESTAURANT, INC.",12/01/2013 12:00:00 AM,12/31/2016 12:00:00 AM,All Alc,85,25,  Park ST,"(42.3726, -71.06104)",42.286646149999996,-71.1589268572965
"ISLAND PRIDE RESTAURANT AND FUNCTION HALL, INC.",11/26/2013 12:00:00 AM,12/31/2016 12:00:00 AM,All Alc,168,986, Blue Hill Av,"(0.0, 0.0)",42.289577,-71.089459
"ITADAKI, LLC",11/27/2013 12:00:00 AM,12/31/2016 12:00:00 AM,All Alc,217,267,  Newbury ST,"(0.0, 0.0)",42.3495586,-71.08352705376663
JONATHAN B. HARKER,11/14/2013 12:00:00 AM,12/31/2016 12:00:00 AM,All Alc,30,336,  Sumner ST,"(42.367286, -71.035739)",42.36728975,-71.03572899569436
CARLOS GROUP LLC,11/20/2013 12:00:00 AM,12/31/2016 12:00:00 AM,Malt Wine,87,1414,  Commonwealth AV,"(42.348527, -71.139106)",42.3485418,-71.1391008
"BRANNELLY'S CAFE, INC.",11/25/2013 12:00:00 AM,12/31/2016 12:00:00 AM,All Alc,179,4432,  Washington ST,"(0.0, 0.0)",42.280539,-71.134349
"J.J. FOLEY'S GRILL, INC.",11/25/2013 12:00:00 AM,12/31/2016 12:00:00 AM,All Alc,219,21, Kingston St,"(0.0, 0.0)",42.353753,-71.0590633
"J.J. FOLEY'S CAFE, INC.",11/25/2013 12:00:00 AM,12/31/2016 12:00:00 AM,All Alc,149,111,E Berkeley ST,"(0.0, 0.0)",42.348430666666665,-71.07158466666667
"J.P. SEAFOOD CAFÉ, INC.",11/26/2013 12:00:00 AM,12/31/2016 12:00:00 AM,All Alc,75,730,  Centre ST,"(42.310802, -71.114458)",42.3108866,-71.1144258
"JACOB WIRTH RESTAURANT COMPANY, LLC",11/26/2013 12:00:00 AM,12/31/2016 12:00:00 AM,All Alc,276,31,  Stuart ST,"(42.35126, -71.06375)",42.3482855,-71.0765335
"COLONIAL TAVERN, INCORPORATED",11/22/2013 12:00:00 AM,12/31/2016 12:00:00 AM,All Alc,288,77, Broadway St,"(0.0, 0.0)",42.34990706976745,-71.06734348837209
"LCY, INC.",11/29/2013 12:00:00 AM,12/31/2016 12:00:00 AM,Malt Wine,90,18,  Tyler ST,"(0.0, 0.0)",42.2464576,-71.1247188909519
"SAPA 2, LLC",11/12/2013 12:00:00 AM,12/31/2016 12:00:00 AM,All Alc,49,1952,  Beacon ST,"(42.336326, -71.150238)",42.33633722986118,-71.14956091155625
"JAHO INDUSTRIES, LLC",08/12/2015 12:00:00 AM,12/31/2016 12:00:00 AM,All Alc Restr,59,661,  Washington ST,"(0.0, 0.0)",42.35218507949087,-71.06250077370369
"MODERN LUNCH, INCORPORATED",11/21/2013 12:00:00 AM,12/31/2016 12:00:00 AM,All Alc,218,387,  Chelsea ST,"(0.0, 0.0)",42.379329750000004,-71.02792375
"LUCKY STRIKE JILLIAN'S, L.L.C.",11/27/2013 12:00:00 AM,12/31/2016 12:00:00 AM,All Alc,1675,145, Ipswich St,"(0.0, 0.0)",42.3474257,-71.0943647
"DA CROSSING, LLC",11/27/2013 12:00:00 AM,12/31/2016 12:00:00 AM,All Alc,100,21,  Temple PL,"(42.3552, -71.06239)",42.3552498,-71.0623372
"BBRG WATERFRONT TR, LLC",11/25/2013 12:00:00 AM,12/31/2016 12:00:00 AM,All Alc,384,100,  Atlantic AV,"(42.361967, -71.050671)",42.3621,-71.051048
"BBRG NEWBURY TR, LLC",11/25/2013 12:00:00 AM,12/31/2016 12:00:00 AM,All Alc,260,26,  Exeter ST,"(42.35061, -71.07967)",42.3506354,-71.0796392
LES NOUVEAUX RESTAURANTS LLC,11/27/2013 12:00:00 AM,12/31/2016 12:00:00 AM,All Alc,95,468,  Commonwealth AV,"(42.34855, -71.09348)",42.348584900000006,-71.09348381471615
DORSET RESTAURANT GROUP LLC,01/08/2016 12:00:00 AM,12/31/2016 12:00:00 AM,All Alc Restr,0,772, Adams St,"(0.0, 0.0)",42.283466,-71.055593
"PABLA BROS., INC.",11/20/2013 12:00:00 AM,12/31/2016 12:00:00 AM,All Alc,76,279,  Newbury ST,"(42.34938, -71.084014)",42.3494102,-71.0838845
"J & J IRISH PUB & GRILLE, LTD",11/26/2013 12:00:00 AM,12/31/2016 12:00:00 AM,All Alc,84,1128,  Dorchester AV,"(0.0, 0.0)",42.31234263157894,-71.05723310526315
"KAY OASIS ENTERPRISES, INC.",11/22/2013 12:00:00 AM,12/31/2016 12:00:00 AM,All Alc,500,1117,  Blue Hill AV,"(42.28635, -71.09111)",42.3048452,-71.0848265
"PARIS ENTERTAINMENT, INC.",11/29/2013 12:00:00 AM,12/31/2016 12:00:00 AM,All Alc,210,1, Harrison Av,"(0.0, 0.0)",42.352356,-71.061414
"KBG, INC.",11/25/2013 12:00:00 AM,12/31/2016 12:00:00 AM,All Alc,99,1410,  Centre ST,"(42.293937, -71.13618)",42.2978789,-71.1302825
"KELLEY SQUARE PUB, INC.",11/21/2013 12:00:00 AM,12/31/2016 12:00:00 AM,All Alc,99,84,  Bennington ST,"(42.376231, -71.035629)",42.3761913,-71.0357131
KING AND I CORPORATION,11/21/2013 12:00:00 AM,12/31/2016 12:00:00 AM,Malt Wine,76,145,  Charles ST,"(0.0, 0.0)",42.3603697,-71.0706347
THE KINGSTON GROUP LLC,12/02/2013 12:00:00 AM,12/31/2016 12:00:00 AM,All Alc,248,25,  Kingston ST,"(42.35375, -71.05925)",42.35366932704966,-71.05916106000261
"KO CATERING AND PIES, LLC",11/18/2013 12:00:00 AM,12/31/2016 12:00:00 AM,Malt Wine,28,256,  Marginal ST,"(42.364227, -71.032549)",42.38603057142857,-71.02941071428572
SHIN HA CORPORATION,11/05/2013 12:00:00 AM,12/31/2016 12:00:00 AM,All Alc,80,122,  Harvard AV,"(42.352431, -71.131711)",42.26014287755102,-71.12277771428572
"KOREAN FUSION, INC.",11/14/2013 12:00:00 AM,12/31/2016 12:00:00 AM,All Alc,64,16,  North ST,"(42.360718, -71.056455)",42.3607111,-71.05645679667033
AOB CORP.,11/13/2013 12:00:00 AM,12/31/2016 12:00:00 AM,Malt Wine,36,108,  L ST,"(42.334052, -71.035091)",42.334123,-71.03523866666666
"505 CONGRESS STREET, LLC",11/26/2013 12:00:00 AM,12/31/2016 12:00:00 AM,All Alc,200,505,  Congress ST,"(0.0, 0.0)",42.34805585,-71.0411701551169
"LA CATRINA, LLC",11/20/2014 12:00:00 AM,12/31/2016 12:00:00 AM,All Alc,19,1620, Commonwealth Av,"(0.0, 0.0)",42.343432141950345,-71.14356686857204
"R.J.A. ENTERPRISES, INC.",11/25/2013 12:00:00 AM,12/31/2016 12:00:00 AM,All Alc,125,112,  Salem ST,"(42.36455, -71.05571)",42.3645231,-71.0555925
"JULIO ESPANA, INDIVIDUAL",11/29/2013 12:00:00 AM,12/31/2015 12:00:00 AM,Malt Wine,19,290,  Bennington ST,"(42.379018, -71.02859)",42.37874623652772,-71.02864968709149
"PAOLINA CORPORATION, INC.",11/19/2013 12:00:00 AM,12/31/2016 12:00:00 AM,All Alc,85,123,  Salem ST,"(0.0, 0.0)",42.364623,-71.055396
"CALLEJAS, INC.",11/26/2013 12:00:00 AM,12/31/2016 12:00:00 AM,All Alc,99,144,  Meridian ST,"(0.0, 0.0)",42.37366136585366,-71.03917609756097
"BFAM, INC.",11/25/2013 12:00:00 AM,12/31/2016 12:00:00 AM,All Alc,124,97,  Mount Vernon ST,"(42.35806, -71.06972)",42.3580849,-71.06973207653061
30 FLEET STREET CORPORATION,11/13/2013 12:00:00 AM,12/31/2016 12:00:00 AM,All Alc,74,30, Fleet St,"(0.0, 0.0)",42.36467355,-71.05255734731847
"GM RESTAURANT ENTERPRISES, INC.",11/22/2013 12:00:00 AM,12/31/2016 12:00:00 AM,All Alc,80,19,  Bennington ST,"(42.375103, -71.037993)",42.3750686,-71.03794632147456
"RAFAEL E. VERAS, INDIVIDUAL",11/29/2013 12:00:00 AM,12/31/2016 12:00:00 AM,Malt Wine,32,302,  Centre ST,"(42.32273, -71.10325)",42.322703700000005,-71.10324874679398
WICKED COMEDY LLC,11/26/2013 12:00:00 AM,12/31/2016 12:00:00 AM,All Alc,400,425,  Summer ST,"(42.346219, -71.043099)",42.3461583,-71.0433047
"LEGAL SEA FOODS, LLC",01/14/2014 12:00:00 AM,12/31/2016 12:00:00 AM,All Alc,175,558, Washington St,"(0.0, 0.0)",42.353697,-71.0621541
"LEGAL SEA FOODS, LLC",11/14/2013 12:00:00 AM,12/31/2016 12:00:00 AM,All Alc,809,270,  Northern AV,"(0.0, 0.0)",42.3486219,-71.0377807
"LEGAL SEA FOODS, LLC",11/25/2013 12:00:00 AM,12/31/2016 12:00:00 AM,All Alc,180,10,  City SQ,"(42.372275, -71.061689)",42.372155,-71.061687
"LEGAL SEA FOODS, LLC",11/14/2013 12:00:00 AM,12/31/2016 12:00:00 AM,All Alc,238,255,  State ST,"(42.359417, -71.051129)",42.3594832,-71.0514451
"LEGAL SEA FOODS, LLC",11/14/2013 12:00:00 AM,12/31/2016 12:00:00 AM,All Alc,299,100, Huntington Av,"(42.34721, -71.0782)",42.346971,-71.079388
"LEGAL SEAFOODS, LLC",11/14/2013 12:00:00 AM,12/31/2016 12:00:00 AM,All Alc,351,800,  Boylston ST,"(42.347296, -71.081457)",42.3471718,-71.08250628733232
"LE, INC.",12/02/2013 12:00:00 AM,12/31/2016 12:00:00 AM,Malt Wine,159,137,  Brighton AV,"(42.353116, -71.131381)",42.3530795,-71.1313038
IN VINO VERITAS BISTRO LLC,11/29/2013 12:00:00 AM,12/31/2016 12:00:00 AM,All Alc,150,129,  South ST,"(42.351209, -71.057569)",42.351071,-71.0575271
"NEW FRANCE - BACK BAY, LLC",11/27/2013 12:00:00 AM,12/31/2016 12:00:00 AM,All Alc,372,776,  Boylston ST,"(0.0, 0.0)",42.34866615,-71.08169316452492
"GEORGE'S RESTAURANT & LOUNGE, INC.",11/08/2013 12:00:00 AM,12/31/2016 12:00:00 AM,Malt Wine,134,323,  Washington ST,"(42.29983, -71.07452)",42.349124,-71.151919
"W Entertainment Group, Inc.",11/19/2013 12:00:00 AM,12/31/2016 12:00:00 AM,Malt Wine,113,204,  Tremont ST,"(42.351757, -71.064491)",42.351815,-71.064586
"RISTORANTE LIMONCELLO, INC.",11/25/2013 12:00:00 AM,12/31/2016 12:00:00 AM,All Alc,120,190,  North ST,"(42.363379, -71.053961)",42.363481,-71.05342
"Lincoln Bar & Grill, Inc.",11/29/2013 12:00:00 AM,12/31/2016 12:00:00 AM,All Alc,76,8,  Lincoln ST,"(42.358902, -71.146953)",42.3589249,-71.14698683525046
"LIQUID ART BOSTON, LLC",11/26/2013 12:00:00 AM,12/31/2016 12:00:00 AM,All Alc,220,100,  Arlington ST,"(42.35002, -71.0695)",42.3499382,-71.06947734385474
"GEORGE BEST, INC.",11/22/2013 12:00:00 AM,12/31/2016 12:00:00 AM,All Alc,355,903,  Boylston ST,"(42.348481, -71.084239)",42.3484206,-71.0842079
"TY RESTAURANT GROUP, INC.",11/26/2013 12:00:00 AM,12/31/2016 12:00:00 AM,All Alc,99,991,  Bennington ST,"(42.386375, -71.007041)",42.385903369188725,-71.00866096001737
"LITTLE Q COMPANY, INC.",01/15/2014 12:00:00 AM,12/31/2016 12:00:00 AM,All Alc,78,660, Washington St,"(0.0, 0.0)",42.3519609,-71.0625507
"LITTLE STEVE'S PIZZA, INC",11/29/2013 12:00:00 AM,12/31/2016 12:00:00 AM,Malt Wine,85,1114, Boylston St,"(0.0, 0.0)",42.3467922,-71.0887042
ASSOCIATES AND LEISURE ACTIVITIES LLC,11/21/2013 12:00:00 AM,12/31/2016 12:00:00 AM,All Alc,1201,246,  Tremont ST,"(42.350688, -71.064668)",42.3507175,-71.0646947
"HAMACHI SERVERS, INC.",11/25/2013 12:00:00 AM,12/31/2016 12:00:00 AM,All Alc,94,823,E Sixth ST,"(42.333112, -71.027318)",42.33333626785715,-71.026927875
"LOCALE, INC.",11/26/2013 12:00:00 AM,12/31/2016 12:00:00 AM,Malt Wine,18,350,  Hanover ST,"(42.36512, -71.05339)",42.364999,-71.05339616666666
"Broadway Restaurant, LLC",11/25/2013 12:00:00 AM,12/31/2016 12:00:00 AM,All Alc,177,412,W Broadway ,"(42.337039, -71.047689)",42.3370536,-71.0477128
"BROOK EGG FARM, INC.",11/26/2013 12:00:00 AM,12/31/2016 12:00:00 AM,All Alc,99,116,  Salem ST,"(42.364676, -71.055658)",42.364682,-71.055614
"LOLITA BOSTON, LLC",11/27/2013 12:00:00 AM,12/31/2016 12:00:00 AM,All Alc,243,271,  Dartmouth ST,"(42.35068, -71.077361)",42.3506853,-71.0774037
"IPSWICH ENTERTAINMENT, INC.",11/26/2013 12:00:00 AM,12/31/2016 12:00:00 AM,All Alc,267,1,  Lansdowne ST,"(42.347312, -71.094489)",42.3473311,-71.0945338
"LOS ARRIEROS RESTAURANT, INC.",11/27/2013 12:00:00 AM,12/31/2016 12:00:00 AM,All Alc,39,13,  Meridian ST,"(42.370601, -71.038751)",42.370453714285716,-71.03886914285715
"LEGAL SEA FOODS, LLC",11/14/2013 12:00:00 AM,12/31/2016 12:00:00 AM,All Alc,166,225, Northern Av,"(42.348075, -71.039263)",42.348660714285714,-71.03876920408163
UKUSA CORP.,11/19/2013 12:00:00 AM,12/31/2016 12:00:00 AM,All Alc,252,224,  Hanover ST,"(0.0, 0.0)",42.36312085714286,-71.05530857142857
"LUCCA HOLDINGS, INC.",11/19/2013 12:00:00 AM,12/31/2016 12:00:00 AM,All Alc,200,116,  Huntington AV,"(42.34651, -71.07976)",42.3467236,-71.0796355
DONATO DONATO GIANNI LLC,11/26/2013 12:00:00 AM,12/31/2016 12:00:00 AM,All Alc,190,415,  Hanover ST,"(42.365578, -71.052718)",42.3674460240469,-71.05249472062499
"CONGRESS FINE DINING, LLC",11/26/2013 12:00:00 AM,12/31/2016 12:00:00 AM,All Alc,240,355,  Congress ST,"(42.350051, -71.04848)",42.350181,-71.04844
"MURAMPO, INC.",11/19/2013 12:00:00 AM,12/31/2016 12:00:00 AM,All Alc,117,421, Cambridge St,"(0.0, 0.0)",42.3549742,-71.1343508
LYRIC STAGE COMPANY,10/01/2013 12:00:00 AM,12/31/2016 12:00:00 AM,Malt Wine,244,140,  Clarendon ST,"(42.348611, -71.074438)",42.34859005263158,-71.07430336842106
"MACUMBA LATINA, INC.",11/25/2013 12:00:00 AM,12/31/2016 12:00:00 AM,All Alc,260,477, River St,"(0.0, 0.0)",42.268126744622776,-71.0930700835412
MAGGIANO'S HOLDING CORPORATION,11/18/2013 12:00:00 AM,12/31/2016 12:00:00 AM,All Alc,480,4,  Columbus AV,"(42.351222, -71.068209)",42.351309854166665,-71.0683314375
"PANDA SPICY POT, INC.",11/29/2013 12:00:00 AM,12/31/2016 12:00:00 AM,Malt Wine,43,129,  Brighton AV,"(42.353088, -71.131119)",42.352825,-71.13180078571429
"LAZARO ORELLANA, INDIVIDUAL",11/26/2013 12:00:00 AM,12/31/2016 12:00:00 AM,Malt Wine,40,1045, Saratoga St,"(0.0, 0.0)",42.386137,-71.005466
"BUCCELLATI, INC.",11/27/2013 12:00:00 AM,12/31/2016 12:00:00 AM,All Alc,76,3,  North SQ,"(42.36407, -71.05331)",42.364069400000005,-71.05331730839484
"JUAN REYES, INDIVIDUAL",11/13/2013 12:00:00 AM,12/31/2016 12:00:00 AM,Malt Wine,19,381,  Centre ST,"(42.322337, -71.10927)",42.29471595,-71.0573966
JPC VENTURE CORP.,11/25/2013 12:00:00 AM,12/31/2016 12:00:00 AM,All Alc,607,21,  Broad ST,"(42.358443, -71.054658)",42.358829,-71.05455638461538
MARRIOTT'S RESORTS HOSPITALITY CORPORATION,11/08/2013 12:00:00 AM,12/31/2016 12:00:00 AM,All Alc,205,3,  McKinley SQ,"(42.35904, -71.05356)",42.3590801,-71.0536495
MARU LLC,11/20/2013 12:00:00 AM,12/31/2016 12:00:00 AM,Malt Wine,45,10,  Huntington AV,"(42.348545, -71.077314)",42.3351382,-71.10366982751569
"MONDAY MORNING, INC",11/26/2013 12:00:00 AM,12/31/2016 12:00:00 AM,All Alc,200,1937,  Beacon ST,"(42.335909, -71.149245)",42.3359182,-71.1492734
"CUSINIERS, INC.",11/27/2013 12:00:00 AM,12/31/2016 12:00:00 AM,All Alc,117,439, Tremont St,"(0.0, 0.0)",42.3468371,-71.0691398
"MASONA, INC.",11/26/2013 12:00:00 AM,12/31/2016 12:00:00 AM,All Alc,48,4,  Corey ST,"(0.0, 0.0)",42.3785428125,-71.0561301875
MASSACHUSETTS CONVENTION CENTER AUTHORITY,11/26/2013 12:00:00 AM,12/31/2016 12:00:00 AM,All Alc,25000,415, Summer St,"(42.344449, -71.044821)",42.34733933705534,-71.04448519024898
"MASSIMINO'S CUCINA ITALIANA,INC.",11/20/2013 12:00:00 AM,12/31/2016 12:00:00 AM,All Alc,48,205,  Endicott ST,"(42.36652, -71.05788)",42.36644705452033,-71.05785024361626
"45 PROVINCE RESTAURANT, LLC",11/26/2013 12:00:00 AM,12/31/2016 12:00:00 AM,All Alc,120,45, Province St,"(42.357037, -71.06017)",42.357051,-71.060062
LINDA C. LODDO,11/20/2013 12:00:00 AM,12/31/2016 12:00:00 AM,All Alc,73,364,  Hanover ST,"(42.365393, -71.053271)",42.36538901545998,-71.05311253955163
"154 Maverick, LLC",03/31/2015 12:00:00 AM,12/31/2016 12:00:00 AM,All Alc Restr,24,154,  Maverick ST,"(42.369908, -71.037913)",42.3698625,-71.037979
"RAW RESTAURANT GROUP, LLC",11/26/2013 12:00:00 AM,12/31/2016 12:00:00 AM,All Alc,224,1, Faneuil Hall Marketplace ,"(0.0, 0.0)",42.36005485,-71.05460485041264
"MAX BRENNER BOYLSTON, INC.",11/18/2013 12:00:00 AM,12/31/2016 12:00:00 AM,All Alc,143,745, Boylston St,"(42.349421, -71.080611)",42.3493887,-71.0808179
MCCORMICK & SCHMICK RESTAURANT CORP.,11/25/2013 12:00:00 AM,12/31/2016 12:00:00 AM,All Alc,296,300,  Faneuil Hall Marketplace  ,"(0.0, 0.0)",42.36005485,-71.05460485041264
"GEORGE ASSOCIATES, INC.",11/22/2013 12:00:00 AM,12/31/2016 12:00:00 AM,All Alc,180,197,  Portland ST,"(0.0, 0.0)",42.3644568,-71.0617544
JAKE INC.,11/14/2013 12:00:00 AM,12/31/2016 12:00:00 AM,All Alc,318,911, Boylston St,"(0.0, 0.0)",42.348395,-71.0842934
ARANGO CORPORATION,11/15/2013 12:00:00 AM,12/31/2016 12:00:00 AM,All Alc,91,411,  Chelsea ST,"(42.379899, -71.026814)",42.380282169437955,-71.02684516719131
"MEI MEI RESTAURANT, INC.",11/30/2015 12:00:00 AM,12/31/2016 12:00:00 AM,All Alc,38,506,  Park DR,"(0.0, 0.0)",42.3475693,-71.1058938
MERENGUE CORP.,11/27/2013 12:00:00 AM,12/31/2016 12:00:00 AM,All Alc,90,156,  Blue Hill AV,"(42.319179, -71.077549)",42.3048452,-71.0848265
NEW APPLETON LLC,11/26/2013 12:00:00 AM,12/31/2016 12:00:00 AM,All Alc,159,1,  Appleton ST,"(42.346725, -71.069653)",42.346669,-71.069289
"THE METROPOLITAN CLUB, INC.",11/19/2013 12:00:00 AM,12/31/2016 12:00:00 AM,All Alc,268,279,  Dartmouth ST,"(0.0, 0.0)",42.3511905,-71.07757468193716
"584 TREMONT, INC.",10/27/2015 12:00:00 AM,12/31/2016 12:00:00 AM,All Alc Restr,40,584, Tremont St,"(0.0, 0.0)",42.34319875,-71.07289425
MFT CORP.,11/21/2013 12:00:00 AM,12/31/2016 12:00:00 AM,All Alc,68,25,  Prince ST,"(42.364563, -71.05416)",42.36459317241379,-71.05424803448275
"ALTAMIRA BANQUETS, LLC",11/25/2013 12:00:00 AM,12/31/2016 12:00:00 AM,All Alc,149,964,  Saratoga ST,"(42.38717, -71.0086)",42.387158,-71.00824
"F&H, INC.",11/13/2013 12:00:00 AM,12/31/2016 12:00:00 AM,All Alc,49,333, Border St,"(0.0, 0.0)",42.379100676470586,-71.03995735294117
TRAIF CORP.,11/25/2013 12:00:00 AM,12/31/2016 12:00:00 AM,All Alc,270,221,  Columbus AV,"(42.348248, -71.07269)",42.34822220454546,-71.07207986363636
"DUNBOY, INC.",11/26/2013 12:00:00 AM,12/31/2016 12:00:00 AM,All Alc,258,27,  Columbus AV,"(42.351143, -71.068949)",42.35129320833333,-71.068655375
"MODEL CAFETERIA, INC.",11/26/2013 12:00:00 AM,12/31/2016 12:00:00 AM,All Alc,96,1,N Beacon ST,"(42.353825, -71.137595)",42.332132,-71.158552
"MODERN PASTRY, INC.",11/19/2013 12:00:00 AM,12/31/2016 12:00:00 AM,All Alc,19,257,  Hanover ST,"(42.363247, -71.054762)",42.363286,-71.05487
"THE PENA-MENDOZA GROUP, INC.",11/26/2013 12:00:00 AM,12/31/2016 12:00:00 AM,All Alc,150,48,  Winter ST,"(42.355863, -71.061898)",42.355909100000005,-71.06196556326435
"CARMEN CARTAGENA RIVERA, INDIVIDUAL",11/25/2013 12:00:00 AM,12/31/2016 12:00:00 AM,Malt Wine,48,221,  Dudley ST,"(42.32837, -71.08064)",42.3284254767962,-71.08059522975203
"MONICA'S, INC.",11/21/2013 12:00:00 AM,12/31/2016 12:00:00 AM,All Alc Restr,98,143,  Richmond ST,"(0.0, 0.0)",42.363369,-71.054242
"MONICA'S MERCATO, INC.",11/21/2013 12:00:00 AM,12/31/2016 12:00:00 AM,All Alc,18,67, Prince St,"(0.0, 0.0)",42.36511527586207,-71.05515465517242
"BANGKOK HUT, INC.",11/27/2013 12:00:00 AM,12/31/2016 12:00:00 AM,All Alc,118,63,  Stuart ST,"(0.0, 0.0)",42.35097458333333,-71.064747
"MOOGY'S SANDWICH SHOP, INC.",11/25/2013 12:00:00 AM,12/31/2016 12:00:00 AM,Malt Wine,76,154,  Chestnut Hill AV,"(42.341552, -71.154278)",42.341696,-71.15433383333334
"MOONSHINE KITCHEN, LLC",11/22/2013 12:00:00 AM,12/31/2016 12:00:00 AM,All Alc,120,152,  Dorchester AV,"(0.0, 0.0)",42.3416821,-71.0568841
"MORTON'S OF CHICAGO/BOSTON SEAPORT, LLC",11/25/2013 12:00:00 AM,12/31/2016 12:00:00 AM,All Alc,236,2,  Seaport LA,"(42.348928, -71.040843)",42.3502036,-71.0427412
"MOTHER ANNA'S, INC.",11/12/2013 12:00:00 AM,12/31/2016 12:00:00 AM,All Alc,73,211,  Hanover ST,"(42.362698, -71.055309)",42.3627119,-71.0553276
THE SOMERS CORPORATION,11/27/2013 12:00:00 AM,12/31/2016 12:00:00 AM,All Alc,99,77,  Broad ST,"(42.357643, -71.053639)",42.3576683,-71.0535739
"Mirch Ventures, Inc.",12/02/2013 12:00:00 AM,12/31/2016 12:00:00 AM,All Alc,77,251, Massachusetts Av,"(0.0, 0.0)",42.3438676,-71.0863727
"KPC, INC.",11/26/2013 12:00:00 AM,12/31/2016 12:00:00 AM,All Alc,65,837,  Summer ST,"(42.338006, -71.03568)",42.33889334146342,-71.03562443902439
MUSEUM OF FINE ARTS,11/27/2013 12:00:00 AM,12/31/2016 12:00:00 AM,All Alc,10630,465, Huntington Av,"(42.331977, -71.101647)",42.3394576,-71.09389640108918
"DAWA MD, INC.",11/20/2013 12:00:00 AM,12/31/2016 12:00:00 AM,All Alc,97,92, Harvard Av,"(0.0, 0.0)",42.259659,-71.12270419034732
"LEANY'S ENTERPRISE, INC.",11/27/2013 12:00:00 AM,12/31/2016 12:00:00 AM,All Alc,179,1233,  Bennington ST,"(42.3899, -70.99673)",42.38987055,-70.99670575403704
ALASTY CORP.,11/25/2013 12:00:00 AM,12/31/2016 12:00:00 AM,All Alc,96,4187,  Washington ST,"(42.287388, -71.127396)",42.28760781818182,-71.12702281818181
"NAVY YARD BISTRO, INC.",11/26/2013 12:00:00 AM,12/31/2016 12:00:00 AM,All Alc,56,1,  First AV,"(42.372593, -71.057652)",42.371931399999994,-71.0513555621205
"JIMMY JUMBO ENTERPRISES, LLC",11/29/2013 12:00:00 AM,12/31/2016 12:00:00 AM,All Alc,180,520,  Atlantic AV,"(0.0, 0.0)",42.3537855,-71.0528227
"ADARE, INC.",11/26/2013 12:00:00 AM,12/31/2016 12:00:00 AM,All Alc,704,2201,  Faneuil Hall Market PL,"(0.0, 0.0)",42.36005485,-71.05460485041264
"NEPTUNE OYSTER, LLC",11/27/2013 12:00:00 AM,12/31/2016 12:00:00 AM,Malt Wine,30,63,  Salem ST,"(42.36323, -71.05594)",42.363327,-71.055914
"NEW GOLDEN GATE, INC.",11/18/2013 12:00:00 AM,12/31/2016 12:00:00 AM,All Alc,72,66,  Beach ST,"(42.351383, -71.060028)",42.35136792307692,-71.06009476923077
ST ORIENTAL CORPORATION,11/26/2013 12:00:00 AM,12/31/2016 12:00:00 AM,Malt Wine,74,5,  Hudson ST,"(42.350966, -71.060128)",42.351044470588235,-71.06005605882352
"JIAN HUNG, INC.",11/25/2013 12:00:00 AM,12/31/2016 12:00:00 AM,Malt Wine,110,15,  Edinboro ST,"(42.352007, -71.059912)",42.35200795,-71.0599122241116
"LOPERA, INC.",11/27/2013 12:00:00 AM,12/31/2016 12:00:00 AM,All Alc,69,127,  Maverick ST,"(42.370207, -71.039361)",42.370229125,-71.0393740625
"PAGA, INC.",11/21/2013 12:00:00 AM,12/31/2016 12:00:00 AM,All Alc,420,100,  Warrenton ST,"(42.350776, -71.066229)",42.3506611,-71.0662113
"MARNICO, INC.",11/13/2013 12:00:00 AM,12/31/2016 12:00:00 AM,All Alc,48,417,  Hanover ST,"(42.36564, -71.0527)",42.3663673,-71.0528349
"NINO INDICIANI, INDIVIDUAL",11/25/2013 12:00:00 AM,12/31/2016 12:00:00 AM,Malt Wine,24,79,  Charles ST,"(42.35838, -71.07042)",42.3583849,-71.0704297
"NO. 9 PARK, L.L.C.",11/22/2013 12:00:00 AM,12/31/2016 12:00:00 AM,All Alc,120,9,  Park ST,"(42.35762, -71.06279)",42.3576412,-71.0629056
"ARCUS GROUP, INC.",11/14/2013 12:00:00 AM,12/31/2016 12:00:00 AM,All Alc,325,101, Arch St,"(0.0, 0.0)",42.355029900000005,-71.05927998233831
"Noodle Barn, Inc.",11/29/2013 12:00:00 AM,12/31/2016 12:00:00 AM,Malt Wine,58,707,  Centre ST,"(42.311433, -71.114661)",42.3114333,-71.1145883
PENA & NOVA CORP.,11/29/2013 12:00:00 AM,12/31/2016 12:00:00 AM,All Alc,67,2801,  Washington ST,"(42.321695, -71.092196)",42.2620157,-71.1564057
"O YA, LLC",11/29/2013 12:00:00 AM,12/31/2016 12:00:00 AM,All Alc Restr,49,9,  East ST,"(42.35135, -71.05694)",42.35134145,-71.05691373695618
"CASWELL RESTAURANT GRUPPO, LLC",12/01/2013 12:00:00 AM,12/31/2016 12:00:00 AM,All Alc,195,319,  A ST,"(0.0, 0.0)",42.34895775,-71.04897864910706
"RHUBARB, INC.",11/19/2013 12:00:00 AM,12/31/2016 12:00:00 AM,All Alc,70,3,  Harvard AV,"(0.0, 0.0)",42.35536657336932,-71.13284147660262
"CMR PRIME, LLC",11/29/2013 12:00:00 AM,12/31/2016 12:00:00 AM,All Alc,343,140, Seaport Bl,"(0.0, 0.0)",42.3502036,-71.0427412
"OISHII, INC.",11/27/2013 12:00:00 AM,12/31/2016 12:00:00 AM,All Alc Restr,90,1166,  Washington ST,"(42.34333, -71.06601)",42.27246104277457,-71.06887449462646
"EMMANUEL GROUP, INC.",11/29/2013 12:00:00 AM,12/31/2016 12:00:00 AM,Malt Wine,54,297,  Chelsea ST,"(42.37699, -71.03023)",42.37698215,-71.03022810524902
"Shin, Inc.",01/12/2016 12:00:00 AM,12/31/2016 12:00:00 AM,All Alc Restr,19,185, Harvard Av,"(0.0, 0.0)",42.26035171428571,-71.122645
ORINOCO LLC,11/26/2013 12:00:00 AM,12/31/2016 12:00:00 AM,All Alc,19,477,  Shawmut AV,"(42.338903, -71.075949)",42.33889175,-71.07588375
"COLUMBUS FISH AND OYSTER, LLC",11/25/2013 12:00:00 AM,12/31/2016 12:00:00 AM,All Alc,323,1,  Charles Street South  ,"(0.0, 0.0)",42.3512787,-71.0673784
"GAINSBORO RESTAURANT, INC.",11/22/2013 12:00:00 AM,12/31/2016 12:00:00 AM,All Alc,286,52, Gainsborough St,"(42.34173, -71.08722)",42.34213957924624,-71.08735635468226
"P. F. CHANG'S CHINA BISTRO, INC.",11/22/2013 12:00:00 AM,12/31/2016 12:00:00 AM,All Alc,245,800,  Boylston ST,"(42.347296, -71.081457)",42.3471718,-71.08250628733232
PLOY PHILIN CORPORATION,11/25/2013 12:00:00 AM,12/31/2016 12:00:00 AM,Malt Wine,82,1116, Boylston St,"(0.0, 0.0)",42.3467728,-71.0887742
"PAGLIUCA'S RESTAURANT, INC.",11/21/2013 12:00:00 AM,12/31/2016 12:00:00 AM,All Alc,68,14, Parmenter St,"(42.36375, -71.05496)",42.36378390085515,-71.05500785444757
"PAINTED BURRO TEMPLE, LLC",12/01/2013 12:00:00 AM,12/31/2016 12:00:00 AM,All Alc,51,35, Temple Pl,"(0.0, 0.0)",42.3551144,-71.0620624
BAKED DAILY CORPORATION,11/22/2013 12:00:00 AM,12/31/2016 12:00:00 AM,Malt Wine,29,144,  Charles ST,"(42.35998, -71.071)",42.3599789,-71.0709685
SJJ CORP.,11/13/2013 12:00:00 AM,12/31/2016 12:00:00 AM,Malt Wine,45,326,  Hanover ST,"(42.364668, -71.05383)",42.36459961538462,-71.05377207692307
AHAWK INC.,11/20/2013 12:00:00 AM,12/31/2016 12:00:00 AM,All Alc Restr,49,251, Main St,"(0.0, 0.0)",42.377107875,-71.066724
"PAPA RAZZI TRATTORIA OF NEWBURY, INC.",11/22/2013 12:00:00 AM,12/31/2016 12:00:00 AM,All Alc,198,157,  Newbury ST,"(42.35089, -71.07854)",42.3508765,-71.07859391765685
"AQUA PAZZA, INC.",11/18/2013 12:00:00 AM,12/31/2016 12:00:00 AM,All Alc,56,135, Richmond St,"(0.0, 0.0)",42.363255,-71.0540986
"HCS, LLC",11/27/2013 12:00:00 AM,12/31/2016 12:00:00 AM,All Alc,214,13,  West ST,"(42.35473, -71.06211)",42.38530034693877,-71.07382432653061
"LEGENDARY RESTAURANT GROUP, LLC",11/27/2013 12:00:00 AM,12/31/2016 12:00:00 AM,All Alc Restr,240,283,  Summer ST,"(0.0, 0.0)",42.349777,-71.05002414780219
"OLD TRAFFORD, INC.",11/22/2013 12:00:00 AM,12/31/2016 12:00:00 AM,All Alc,999,967,  Commonwealth AV,"(42.352013, -71.119406)",42.3518676,-71.1194234
"THE LADIES' LOUNGE, INC.",11/21/2013 12:00:00 AM,12/31/2016 12:00:00 AM,Malt Wine,86,750, Dudley St,"(0.0, 0.0)",42.317711,-71.066391
KHALED MOHEYDEEN,11/27/2013 12:00:00 AM,12/31/2016 12:00:00 AM,All Alc,19,230, Hanover St,"(0.0, 0.0)",42.3632331,-71.0552539
"PASTA BEACH ROWES WHARF, LLC",11/13/2013 12:00:00 AM,12/31/2016 12:00:00 AM,All Alc,59,30,  Rowes Wharf  ,"(0.0, 0.0)",42.35644675,-71.05032374307919
"PASTORAL, LLC",11/26/2013 12:00:00 AM,12/31/2016 12:00:00 AM,All Alc,180,345,  Congress ST,"(0.0, 0.0)",42.3507352,-71.0492839
BEMA Restaurant Corporation,11/27/2013 12:00:00 AM,12/31/2016 12:00:00 AM,All Alc,480,138,  Brighton AV,"(42.352761, -71.13179)",42.35278,-71.13140414285714
"MASSACHUSETTS SPORTSERVICE, INC.",11/27/2013 12:00:00 AM,12/31/2016 12:00:00 AM,All Alc,98,100,  Legends WY,"(42.36629, -71.0622)",42.36628985,-71.06222575726522
"PEACH FARM, INC.",11/19/2013 12:00:00 AM,12/31/2016 12:00:00 AM,Malt Wine,96,4,  Tyler ST,"(42.35115, -71.0604)",42.24677234782609,-71.12517834782608
"LIMERICK CO., INC. OF DORCHESTER",11/21/2013 12:00:00 AM,12/31/2016 12:00:00 AM,All Alc,221,1310,  Dorchester AV,"(42.30591, -71.0586)",42.30577814515882,-71.05873197856077
"KUALA LUMPUR, INC.",12/02/2013 12:00:00 AM,12/31/2016 12:00:00 AM,Malt Wine,114,685,  Washington ST,"(0.0, 0.0)",42.35137694073365,-71.06291657758591
"PHO AND I, INC.",11/18/2013 12:00:00 AM,12/31/2016 12:00:00 AM,Malt Wine,87,267,  Huntington AV,"(42.342206, -71.086199)",42.2685079,-71.11841202367941
"PHO RESTAURANT, INC.",11/27/2013 12:00:00 AM,12/31/2016 12:00:00 AM,Malt Wine,120,1370,  Dorchester AV,"(42.304043, -71.05896)",42.30396157142857,-71.05913028571429
"PHO HOA RESTAURANT II, INC.",11/20/2013 12:00:00 AM,12/31/2016 12:00:00 AM,Malt Wine,50,17,  Beach ST,"(0.0, 0.0)",42.302249944360916,-71.055075510497
"PHO LE, LLC",01/12/2015 12:00:00 AM,12/31/2016 12:00:00 AM,All Alc Restr,99,1356,  Dorchester AV,"(42.3044, -71.058961)",42.30445957142857,-71.05901585714287
"PASTEUR RESTAURANT II, INC.",11/15/2013 12:00:00 AM,12/31/2016 12:00:00 AM,Malt Wine,86,682, Washington St,"(42.351393, -71.062629)",42.3514781,-71.0626786
HUY HOANG CORP.,02/04/2015 12:00:00 AM,12/31/2016 12:00:00 AM,Malt Wine,60,223,  Adams ST,"(42.301468, -71.060031)",42.3015918,-71.05994709999999
"WIKROM, INC.",11/14/2013 12:00:00 AM,12/31/2016 12:00:00 AM,Malt Wine,40,1856, Centre St,"(0.0, 0.0)",42.2978789,-71.1302825
"PRANZINI, INC.",03/31/2016 12:00:00 AM,12/31/2016 12:00:00 AM,All Alc,77,226,  Newbury ST,"(42.34971, -71.08124)",42.3497201,-71.081244
"B&T, LLC",11/22/2013 12:00:00 AM,12/31/2016 12:00:00 AM,Malt Wine,60,530,  Tremont ST,"(42.344517, -71.07018)",42.34456380889495,-71.0703939214734
"TOW PIER 6 RESTAURANT GROUP, LLC.",11/26/2013 12:00:00 AM,12/31/2016 12:00:00 AM,All Alc,325,1, Eighth St,"(42.373172, -71.050092)",42.3730678,-71.0499784
"PLEASANT, INC.",11/25/2013 12:00:00 AM,12/31/2016 12:00:00 AM,All Alc,195,4511,  Washington ST,"(0.0, 0.0)",42.27879490863303,-71.13658030303836
LISA DIPRIZIO,11/22/2013 12:00:00 AM,12/31/2016 12:00:00 AM,All Alc,99,981,  Bennington ST,"(42.386267, -71.007379)",42.38584701343066,-71.0088276750512
"North End Pomodoro of Boston, Inc.",11/08/2013 12:00:00 AM,12/31/2016 12:00:00 AM,Malt Wine,22,204,  Hanover ST,"(42.362833, -71.055718)",42.3628225,-71.055628
THE BLUES CORPORATION,11/22/2013 12:00:00 AM,12/31/2016 12:00:00 AM,All Alc,120,338,  Washington ST,"(42.348901, -71.152529)",42.348988,-71.1523972
"LOFMUR, INC.",11/03/2015 12:00:00 AM,12/31/2016 12:00:00 AM,All Alc Restr,35,1723, Centre St,"(0.0, 0.0)",42.2978789,-71.1302825
"SB & G, INC.",11/29/2013 12:00:00 AM,12/31/2016 12:00:00 AM,All Alc,90,179, Portland St,"(0.0, 0.0)",42.36439935,-71.06156859344523
"PORTO BELLO, INC.",11/25/2013 12:00:00 AM,12/31/2016 12:00:00 AM,All Alc,24,672,E Broadway ,"(42.3358, -71.03763)",42.335766250000006,-71.03764151082044
"CLARENDON RESTAURANT, LLC",11/21/2013 12:00:00 AM,12/31/2016 12:00:00 AM,All Alc,360,406, Stuart St,"(0.0, 0.0)",42.348879,-71.0740596
"PREZZA, INC.",11/19/2013 12:00:00 AM,12/31/2016 12:00:00 AM,All Alc,98,24,  Fleet ST,"(42.36467, -71.05276)",42.364687950000004,-71.05272703176317
"PUEBLO VIEJO PUPUSERIA & MEXICAN GRILL II, INC.",11/12/2013 12:00:00 AM,12/31/2016 12:00:00 AM,All Alc,60,309,  Bennington ST,"(42.378888, -71.027796)",42.379015777777774,-71.02763914814814
"GAGANDEEP, INC.",11/18/2013 12:00:00 AM,12/31/2016 12:00:00 AM,Malt Wine,38,109,  Brighton AV,"(42.35302, -71.13052)",42.35271040909091,-71.13079295454546
STEVE NEWMAN,11/26/2013 12:00:00 AM,12/31/2016 12:00:00 AM,All Alc,146,444,  Huntington AV,"(0.0, 0.0)",42.263265399999995,-71.11445811290957
PUSHCART CAFE,11/22/2013 12:00:00 AM,12/31/2016 12:00:00 AM,All Alc,48,115,  Salem ST,"(42.364414, -71.055372)",42.364434,-71.055414
Qdoba Restaurant Corporation,11/29/2013 12:00:00 AM,12/31/2016 12:00:00 AM,Malt Wine,92,17,  Forsyth ST,"(42.340107, -71.091002)",42.34076360869565,-71.09100504347826
Qdoba Restaurant Corporation,11/29/2013 12:00:00 AM,12/31/2016 12:00:00 AM,All Alc Restr,47,101, Causeway St,"(0.0, 0.0)",42.3648474,-71.0619797
"IL PANINO EXPRESS, INC.",11/18/2013 12:00:00 AM,12/31/2016 12:00:00 AM,All Alc,48,264,  Hanover ST,"(42.363585, -71.054861)",42.363613,-71.054828
"RABIA'S, INC.",11/25/2013 12:00:00 AM,12/31/2016 12:00:00 AM,All Alc,62,71,  Salem ST,"(42.363371, -71.055799)",42.363419,-71.055848
RED D. CORPORATION,11/27/2013 12:00:00 AM,12/31/2016 12:00:00 AM,Malt Wine,19,33,  North SQ,"(42.3635, -71.05386)",42.363648,-71.053733
"SNP RESTAURANT GROUP, LLC",11/27/2013 12:00:00 AM,12/31/2016 12:00:00 AM,All Alc,108,9,  Bowdoin ST,"(42.36102, -71.06319)",42.299457,-71.073041
"BIG NIGHT VENUES BOSTON 1, LLC",11/25/2013 12:00:00 AM,12/31/2016 12:00:00 AM,All Alc,299,41,  Stanhope ST,"(0.0, 0.0)",42.348471,-71.07341315
"CHARLIE REDD, INC.",11/26/2013 12:00:00 AM,12/31/2016 12:00:00 AM,All Alc,97,4255,  Washington ST,"(0.0, 0.0)",42.28531283783784,-71.1295038918919
"REGAL CINEMAS, INC.",11/25/2013 12:00:00 AM,12/31/2016 12:00:00 AM,Malt Wine,3013,201,  Brookline AV,"(42.344649, -71.102201)",42.3441935,-71.1022511
"REGINA PIZZA OF ALLSTON, LLC",11/21/2013 12:00:00 AM,12/31/2016 12:00:00 AM,All Alc,330,353,  Cambridge ST,"(42.356111, -71.132629)",42.355673,-71.132687
"REGINA PIZZERIA AT FENWAY, INC.",11/21/2013 12:00:00 AM,12/31/2016 12:00:00 AM,All Alc,33,1330, Boylston St,"(0.0, 0.0)",42.34399915,-71.09847246172475
"REBEL RESTAURANTS, INC.",11/20/2013 12:00:00 AM,12/31/2016 12:00:00 AM,All Alc,539,240,  SEAPORT BLVD,"(0.0, 0.0)",42.3507475,-71.043488
"D & D HOSPITALITY, LLC",11/26/2013 12:00:00 AM,12/31/2016 12:00:00 AM,All Alc,150,11,  Dorchester ST,"(42.33721, -71.04375)",42.3373051,-71.04365741284448
"F.P. RESTAURANT, INC.",11/21/2013 12:00:00 AM,12/31/2016 12:00:00 AM,Malt Wine,98,288,  Hanover ST,"(0.0, 0.0)",42.36320326530612,-71.05557928571429
"VADO PAZZO, INC.",11/18/2013 12:00:00 AM,12/31/2016 12:00:00 AM,All Alc,170,241, Hanover St,"(0.0, 0.0)",42.363223777777776,-71.05493044444445
RICHARD M. TRAVAGLIONE,11/22/2013 12:00:00 AM,12/31/2016 12:00:00 AM,All Alc,90,175,  North ST,"(0.0, 0.0)",42.36311,-71.053909
SANTA'S FOOD CORPORATION,01/09/2015 12:00:00 AM,12/31/2016 12:00:00 AM,All Alc Restr,49,18,  Fairmount AV,"(42.255693, -71.1208)",42.255499428571426,-71.12068914285715
STREGA PIZZERIA & CAFÉ CORP.,11/13/2013 12:00:00 AM,12/31/2016 12:00:00 AM,All Alc,10,371,  Hanover ST,"(42.36488, -71.05315)",42.364877,-71.05323849999999
"RINCON LIMENO RESTAURANT, INC.",11/07/2013 12:00:00 AM,12/31/2016 12:00:00 AM,All Alc,49,409,  Chelsea ST,"(42.37986, -71.02689)",42.37991,-71.026974
"RINO'S PLACE, INC.",11/21/2013 12:00:00 AM,12/31/2016 12:00:00 AM,Malt Wine,36,258,  Saratoga ST,"(0.0, 0.0)",42.37798973469388,-71.03290842857143
"119 Salem Street, Inc.",11/19/2013 12:00:00 AM,12/31/2016 12:00:00 AM,All Alc,46,119,  Salem ST,"(0.0, 0.0)",42.36448,-71.05540933333333
"DFD RESTAURANT GROUP, LLC",11/15/2013 12:00:00 AM,12/31/2016 12:00:00 AM,All Alc,138,41, Charles St,"(0.0, 0.0)",42.30020585,-71.06374712990123
"ROCCO'S CUCINA AND BAR, INC.",11/29/2013 12:00:00 AM,12/31/2016 12:00:00 AM,All Alc,49,450,  Commercial ST,"(0.0, 0.0)",42.36737333333333,-71.05321122222222
"BREW MOON COLORADO, INC.",11/25/2013 12:00:00 AM,12/31/2016 12:00:00 AM,All Alc,239,115,  Stuart ST,"(42.351377, -71.065481)",42.351257,-71.0650021
"ROGGIE'S 356 MIX, INC.",11/27/2013 12:00:00 AM,12/31/2016 12:00:00 AM,All Alc,180,356,  Chestnut Hill AV,"(42.336824, -71.151471)",42.3368679,-71.1514757
"SESAME CZ, LLC",11/27/2013 12:00:00 AM,12/31/2016 12:00:00 AM,All Alc,190,801,  Massachusetts AV,"(0.0, 0.0)",42.333084,-71.07349216065349
"ROSA MEXICANO BOSTON, LLC",11/22/2013 12:00:00 AM,12/31/2016 12:00:00 AM,All Alc,296,155,  Seaport BL,"(42.34968, -71.04281)",42.3502036,-71.0427412
"ROSTICERIA CANCUN 2, LLC",11/27/2013 12:00:00 AM,12/31/2016 12:00:00 AM,Malt Wine,48,145, Meridian St,"(0.0, 0.0)",42.373867153846156,-71.03895830769231
"VIRGINICA, LLC",11/27/2013 12:00:00 AM,12/31/2016 12:00:00 AM,All Alc,156,381,  Congress ST,"(42.349586, -71.047643)",42.34958405,-71.04763642795639
STRONGBOX CORP.,11/25/2013 12:00:00 AM,12/31/2016 12:00:00 AM,All Alc Restr,35,1881,  Centre ST,"(42.286043, -71.155668)",42.2978789,-71.1302825
ROXY'S GRILLED CHEESE ALLSTON LLC,05/16/2014 12:00:00 AM,12/31/2016 12:00:00 AM,All Alc Restr,19,485, Cambridge St,"(0.0, 0.0)",42.3537857131514,-71.13713259250694
BOSTON BALLROOM CORPORATION,11/21/2013 12:00:00 AM,12/31/2016 12:00:00 AM,All Alc,1220,279,  Tremont ST,"(42.34995, -71.065539)",42.3546358,-71.17951235595807
nan,12/29/2014 12:00:00 AM,12/31/2016 12:00:00 AM,All Alc,48,709,E Broadway ,"(42.33542, -71.037)",42.33551476923077,-71.036986
NWRK LLC,11/25/2013 12:00:00 AM,12/31/2016 12:00:00 AM,All Alc,291,210, Stuart St,"(0.0, 0.0)",42.3504684,-71.068442
"RUTH'S CHRIS STEAK HOUSE BOSTON, LLC",11/27/2013 12:00:00 AM,12/31/2016 12:00:00 AM,All Alc,281,45,  School ST,"(42.35811, -71.05933)",42.358115600000005,-71.05932384482708
"T AND T ICUISINE, INC.",11/25/2013 12:00:00 AM,12/31/2016 12:00:00 AM,Malt Wine,99,268,  Adams ST,"(0.0, 0.0)",42.300164249999995,-71.05879875
SAINT FINBAR CORP.,11/20/2013 12:00:00 AM,12/31/2016 12:00:00 AM,All Alc,70,108, Cambridge St,"(42.382197, -71.07937)",42.3821725,-71.0793661
"SAKURABANA, INC.",11/15/2013 12:00:00 AM,12/31/2016 12:00:00 AM,Malt Wine,91,55,  Broad ST,"(42.357986, -71.054346)",42.358059,-71.05411875
"GREEK KITCHEN 1, LLC",11/27/2013 12:00:00 AM,12/31/2016 12:00:00 AM,Malt Wine,103,132, Brookline Av,"(0.0, 0.0)",42.3449449,-71.1006972
"132 BROOKLINE AVENUE, LLC",11/26/2013 12:00:00 AM,12/31/2016 12:00:00 AM,Malt Wine,42,51, Brookline Av,"(0.0, 0.0)",42.3473318,-71.0986794
"LITTLEFIELD MANAGEMENT, INC.",11/27/2013 12:00:00 AM,12/31/2016 12:00:00 AM,All Alc Restr,94,118,  Dorchester ST,"(42.335002, -71.046228)",42.3350545,-71.04640025
"TRI'UR, INC.",11/08/2013 12:00:00 AM,12/31/2016 12:00:00 AM,All Alc,90,130,  Dartmouth ST,"(42.346779, -71.0761)",42.3469394,-71.0761022
"SAL'S PARAMOUNT CENTER, LLC",11/26/2013 12:00:00 AM,12/31/2016 12:00:00 AM,All Alc,120,545, Washington St,"(0.0, 0.0)",42.353882999999996,-71.06285011006793
"SAL'S ITALIAN TRATTORIA, LLC",11/25/2013 12:00:00 AM,12/31/2016 12:00:00 AM,All Alc Restr,150,225, Northern Av,"(42.348075, -71.039263)",42.348660714285714,-71.03876920408163
"MENU HAT, LLC",11/27/2013 12:00:00 AM,12/31/2016 12:00:00 AM,All Alc,0,22, Liberty  Dr,"(0.0, 0.0)",42.3545481,-71.04524855692506
"FJS, INC.",11/14/2013 12:00:00 AM,12/31/2016 12:00:00 AM,All Alc,156,111,  Chelsea ST,"(42.37264, -71.03526)",42.3726687,-71.0353415
"TL Sons, LLC",12/01/2014 12:00:00 AM,12/31/2016 12:00:00 AM,All Alc Restr,0,100,  Summer ST,"(42.353633, -71.057366)",42.35384315,-71.05741601421146
SAUS BOSTON LLC,11/13/2013 12:00:00 AM,12/31/2016 12:00:00 AM,All Alc Restr,22,33,  Union ST,"(42.36117, -71.05678)",42.3611464,-71.0567876
E. R. ENTERPRISES,11/26/2013 12:00:00 AM,12/31/2016 12:00:00 AM,All Alc,185,174,  Lincoln ST,"(42.350585, -71.058431)",42.357988272727276,-71.14023118181818
"BIG HOUSE FINE DINING, LLC",11/26/2013 12:00:00 AM,12/31/2016 12:00:00 AM,All Alc,392,215,  Charles ST,"(42.36203, -71.070362)",42.3620681,-71.07015767249052
"LEINSTER GROUP, INC.",11/25/2013 12:00:00 AM,12/31/2016 12:00:00 AM,All Alc,386,25, School St,"(0.0, 0.0)",42.3576641,-71.0590082
"BOSTON TAVERN COMPANY, INC.",11/29/2013 12:00:00 AM,12/31/2016 12:00:00 AM,All Alc,0,300, Harrison Av,"(42.346109, -71.062993)",42.3454666,-71.0628246
"LEGENDARY FOOD CONCEPTS, INC.",11/27/2013 12:00:00 AM,12/31/2016 12:00:00 AM,All Alc,90,21,  Beacon ST,"(0.0, 0.0)",42.33273607022881,-71.15913955744577
"JD RESTAURANT GROUP, INC.",11/19/2013 12:00:00 AM,12/31/2016 12:00:00 AM,Malt Wine,87,580,  Commonwealth AV,"(42.348814, -71.099357)",42.3488848,-71.0997231
"JV Kitchen, LLC",01/22/2015 12:00:00 AM,12/31/2016 12:00:00 AM,All Alc Restr,18,1782, Dorchester Av,"(0.0, 0.0)",42.28963293333333,-71.06309746666666
"DUO WINES, INC.",04/14/2015 12:00:00 AM,12/31/2016 12:00:00 AM,All Alc Restr,19,1721,  Washington ST,"(42.337071, -71.076601)",42.2620157,-71.1564057
"Select Oyster, LLC",11/25/2013 12:00:00 AM,12/31/2016 12:00:00 AM,All Alc,60,50,  Gloucester ST,"(42.34862, -71.08407)",42.3486374,-71.0840371
"KMHW, INC.",11/27/2013 12:00:00 AM,12/31/2016 12:00:00 AM,All Alc,84,156,  Cambridge ST,"(42.360978, -71.064668)",42.3610048,-71.0646998
"KF Boston, Inc",11/19/2013 12:00:00 AM,12/31/2016 12:00:00 AM,All Alc,48,1245, Commonwealth Av,"(0.0, 0.0)",42.3502658,-71.1318519
"10 HIGH STREET RESTAURANT, LLC",11/20/2013 12:00:00 AM,12/31/2016 12:00:00 AM,All Alc,354,8,  High ST,"(0.0, 0.0)",42.30993630122237,-71.06076515236595
"ZEN INTERNATIONAL, INC.",11/26/2013 12:00:00 AM,12/31/2016 12:00:00 AM,Malt Wine,93,14,  Tyler ST,"(42.350861, -71.060487)",42.2466121,-71.1248951025311
SHAKE SHACK NEWBURY STREET BOSTON LLC,11/20/2013 12:00:00 AM,12/31/2016 12:00:00 AM,Malt Wine,110,234,  Newbury ST,"(0.0, 0.0)",42.3496386,-71.0815943
"SHANNON TAVERN, INC.",11/15/2013 12:00:00 AM,12/31/2016 12:00:00 AM,All Alc,45,558,E Third St,"(0.0, 0.0)",42.33654952,-71.03718592
"NOSMADA, INC.",11/25/2013 12:00:00 AM,12/31/2016 12:00:00 AM,All Alc,232,332,W Broadway ,"(42.338415, -71.049876)",42.33837938141514,-71.05001052662435
"SHIAWASE, INC.",11/29/2013 12:00:00 AM,12/31/2016 12:00:00 AM,Malt Wine,32,674,E Broadway ,"(0.0, 0.0)",42.33566,-71.03814925
"TREMONT THEATRE, INC.",11/25/2013 12:00:00 AM,12/31/2016 12:00:00 AM,All Alc,1596,265, Tremont St,"(0.0, 0.0)",42.3503329,-71.0653378
"JAE'S CAFÉ & GRILL, INC.",11/19/2013 12:00:00 AM,12/31/2016 12:00:00 AM,All Alc,111,520,  Columbus AV,"(42.34189, -71.07978)",42.34189295,-71.07977614694909
K & G Entertainment LLC,12/02/2013 12:00:00 AM,12/31/2016 12:00:00 AM,All Alc,110,14,  Bromfield ST,"(0.0, 0.0)",42.356548000000004,-71.059952
"SILHOUETTE LOUNGE, INC.",11/14/2013 12:00:00 AM,12/31/2016 12:00:00 AM,All Alc,86,200, Brighton Av,"(0.0, 0.0)",42.35313,-71.134192
"SILVERTONE RESTAURANT, INC.",11/26/2013 12:00:00 AM,12/31/2016 12:00:00 AM,All Alc,130,69,  Bromfield ST,"(42.357122, -71.060928)",42.3571207,-71.0609359
"CRAFT CAFÉ, LLC",11/25/2013 12:00:00 AM,12/31/2016 12:00:00 AM,All Alc,19,3840,  Washington ST,"(0.0, 0.0)",42.2970053,-71.11668970641612
"THE K'S, INC.",11/21/2013 12:00:00 AM,12/31/2016 12:00:00 AM,All Alc,176,6, Commercial St,"(0.0, 0.0)",42.366068041666665,-71.051093125
CLARENDON LIMITED PARTNER,11/21/2013 12:00:00 AM,12/31/2016 12:00:00 AM,All Alc,235,199,  Clarendon ST,"(42.349571, -71.074268)",42.349774,-71.074629
"HOLLYWOOD SPORTS BAR AND GRILL, LLC",11/26/2013 12:00:00 AM,12/31/2016 12:00:00 AM,All Alc,185,958,  Tremont ST,"(0.0, 0.0)",42.337577887995266,-71.08337615618235
HIGH MIDDLE CORP.,11/26/2013 12:00:00 AM,12/31/2016 12:00:00 AM,All Alc,108,230,  Congress ST,"(42.35449, -71.05422)",42.35437912,-71.05420924
SMITH & WOLLENSKY ATLANTIC WHARF LLC,11/20/2013 12:00:00 AM,12/31/2016 12:00:00 AM,All Alc,408,290,  Congress ST,"(42.353001, -71.052481)",42.3529,-71.052659
S&W OF BOSTON LLC,11/27/2013 12:00:00 AM,12/31/2016 12:00:00 AM,All Alc,434,101,  Arlington ST,"(42.34972, -71.070009)",42.350007,-71.06996
"74 LTD, INC.",11/27/2013 12:00:00 AM,12/31/2016 12:00:00 AM,All Alc,44,108,  Newbury ST,"(42.351223, -71.075671)",42.3487853,-71.0855293
"IWJ RESTAURANT GROUP, INC.",11/22/2013 12:00:00 AM,12/31/2016 12:00:00 AM,All Alc,199,99,  High ST,"(42.354245, -71.05484)",42.35416995,-71.054716365
"MAYASOL, INC.",11/29/2013 12:00:00 AM,12/31/2016 12:00:00 AM,All Alc,96,912,  Beacon ST,"(0.0, 0.0)",42.34590010483871,-71.10692073387096
"C & S TAVERN, INC.",11/25/2013 12:00:00 AM,12/31/2016 12:00:00 AM,All Alc,40,380,  Warren ST,"(42.317986, -71.081739)",42.317946,-71.081837
"AMARU'S VILLA, INC.",11/21/2013 12:00:00 AM,12/31/2016 12:00:00 AM,All Alc,147,750,  Adams ST,"(42.28397, -71.055271)",42.284131,-71.05538383333334
NEWBURY FINE DINING LIMITED PARTNERSHIP,11/26/2013 12:00:00 AM,12/31/2016 12:00:00 AM,All Alc,232,327,  Newbury ST,"(42.348792, -71.086271)",42.348741,-71.0862086
TONELLI INCORPORATED,11/07/2013 12:00:00 AM,12/31/2016 12:00:00 AM,Malt Wine,78,388,  Centre ST,"(42.32173, -71.10964)",42.295065,-71.057081
SORELLINA LLC,11/27/2013 12:00:00 AM,12/31/2016 12:00:00 AM,All Alc,160,1, Huntington Av,"(42.348762, -71.077999)",42.3487095,-71.0783774
SOUL FIRE LLC,11/26/2013 12:00:00 AM,12/31/2016 12:00:00 AM,Malt Wine,93,178,  Harvard AV,"(42.35116, -71.13119)",42.26028002040816,-71.12284571428572
"KUPKA, LLC",11/26/2013 12:00:00 AM,12/31/2016 12:00:00 AM,All Alc Restr,34,737,  Huntington AV,"(42.334069, -71.105529)",42.334050561911575,-71.10531866451045
"SOUTH BOSTON CANDLEPINS, INC.",11/20/2013 12:00:00 AM,12/31/2016 12:00:00 AM,Malt Wine,186,543,E Broadway ,"(0.0, 0.0)",42.33541562068966,-71.04270131034482
BUTTERY CORPORATION,11/26/2013 12:00:00 AM,12/31/2016 12:00:00 AM,All Alc Restr,108,314,  Shawmut AV,"(42.34209, -71.07029)",42.342084400000005,-71.07035745000002
"SOUTH DINER, LLP",11/20/2013 12:00:00 AM,12/31/2016 12:00:00 AM,All Alc Restr,39,178,  Kneeland ST,"(42.349893, -71.057819)",42.34986615,-71.05774915
CLOTILDE SPAGNUOLO IANDOLI,11/07/2013 12:00:00 AM,12/31/2016 12:00:00 AM,All Alc,49,242,  Hanover ST,"(0.0, 0.0)",42.3633327,-71.0551237
"SPINELLI'S BANQUET HALL, INC.",11/26/2013 12:00:00 AM,12/31/2016 12:00:00 AM,All Alc,230,282, Bennington St,"(0.0, 0.0)",42.378672825749895,-71.02876223676466
"V-LOUNGE, INC.",11/19/2013 12:00:00 AM,12/31/2016 12:00:00 AM,All Alc,250,150,  Kneeland ST,"(42.349977, -71.05817)",42.3499328,-71.0582458
"SOCIAL 132, LLC",11/25/2013 12:00:00 AM,12/31/2016 12:00:00 AM,All Alc,153,132,  Canal ST,"(0.0, 0.0)",42.3647227,-71.0606014
SPRING STREET CAFÉ CORP,11/20/2013 12:00:00 AM,12/31/2016 12:00:00 AM,All Alc,48,320,  Spring ST,"(42.27171, -71.17211)",42.272141636363635,-71.17178477272728
"South End Partners, Inc.",03/12/2015 12:00:00 AM,12/31/2016 12:00:00 AM,All Alc Restr,256,569,  Columbus AV,"(42.34099, -71.08164)",42.3409201,-71.0816412
"DeDANANN, INC.",11/22/2013 12:00:00 AM,12/31/2016 12:00:00 AM,All Alc,163,5, Mcbride St,"(0.0, 0.0)",42.30579295,-71.11443313827067
